stop_id,stop_code,stop_name,stop_desc,stop_lat,stop_lon,location_type,parent_station,wheelchair_boarding
1,1,"Jackson & Austin Terminal","Jackson & Austin Terminal, Northeastbound, Bus Terminal",41.87632969,-87.77411061,0,,1
2,2,"5900 W Jackson","5900 W Jackson, Eastbound, Southside of the Street",41.87707463,-87.77132373,0,,1
4,4,"5700 W Jackson","5700 W Jackson, Eastbound, Southside of the Street",41.8769922,-87.76826417,0,,1
6,6,"Jackson & Lotus","Jackson & Lotus, Eastbound, Southeast Corner",41.87652085,-87.76145179,0,,1
7,7,"5351 W Jackson","5351 W Jackson, Eastbound, Southside of the Street",41.87655982,-87.75893123,0,,1
8,8,"Jackson & Lockwood","Jackson & Lockwood, Eastbound, Southeast Corner",41.87657185,-87.75731879,0,,1
9,9,"Jackson & Laramie","Jackson & Laramie, Eastbound, Southeast Corner",41.87660248,-87.75462104,0,,1
10,10,"Jackson & Leamington","Jackson & Leamington, Eastbound, Southeast Corner",41.8766342,-87.75317419,0,,1
11,11,"5047 W Jackson","5047 W Jackson, Eastbound, Southside of the Street",41.87665915,-87.75128834,0,,1
12,12,"Jackson & Lavergne","Jackson & Lavergne, Eastbound, Southeast Corner",41.87667615,-87.74884301,0,,1
13,13,"4849 W Jackson","4849 W Jackson, Eastbound, Southside of the Street",41.87669677,-87.74702316,0,,1
14,14,"Jackson & Cicero","Jackson & Cicero, Eastbound, Southeast Corner",41.87677098,-87.74483644,0,,1
15,15,"Jackson & Kilpatrick","Jackson & Kilpatrick, Eastbound, Southeast Corner",41.8768376,-87.74255479,0,,1
16,16,"Jackson & Kenton","Jackson & Kenton, Eastbound, Southside of the Street",41.87684143,-87.74059103,0,,1
18,18,"Jackson & Kilbourn","Jackson & Kilbourn, Eastbound, Southeast Corner",41.87689357,-87.73761999,0,,1
19,19,"Jackson & Kostner","Jackson & Kostner, Eastbound, Southeast Corner",41.87692282,-87.7351646,0,,1
20,20,"Jackson & Kildare","Jackson & Kildare, Eastbound, Southeast Corner",41.87694085,-87.73265578,0,,1
21,21,"Jackson & Keeler","Jackson & Keeler, Eastbound, Southeast Corner",41.87697085,-87.73020578,0,,1
22,22,"Jackson & Karlov","Jackson & Karlov, Eastbound, Southeast Corner",41.87701444,-87.72781365,0,,1
23,23,"Jackson & Pulaski","Jackson & Pulaski, Eastbound, Southeast Corner",41.87704788,-87.725335,0,,1
24,24,"Jackson & Springfield","Jackson & Springfield, Eastbound, Southeast Corner",41.8770764,-87.72296018,0,,1
25,25,"Jackson & Hamlin","Jackson & Hamlin, Eastbound, Southwest Corner",41.8770885,-87.72083241,0,,1
26,26,"Jackson & Central Park","Jackson & Central Park, Eastbound, Southeast Corner",41.87714967,-87.71548297,0,,1
27,27,"Jackson & St. Louis","Jackson & St. Louis, Eastbound, Southeast Corner",41.87718885,-87.71324677,0,,1
29,29,"Jackson & Spaulding","Jackson & Spaulding, Eastbound, Southeast Corner",41.87723901,-87.70828241,0,,1
30,30,"Jackson & Kedzie","Jackson & Kedzie, Eastbound, Southeast Corner",41.87726589,-87.7057797,0,,1
31,31,"Jackson & Albany","Jackson & Albany, Eastbound, Southeast Corner",41.87729585,-87.70332877,0,,1
32,32,"Jackson & Sacramento","Jackson & Sacramento, Eastbound, Southeast Corner",41.87732585,-87.70087277,0,,1
34,34,"Jackson & California","Jackson & California, Eastbound, Southeast Corner",41.87737867,-87.69596091,0,,1
36,36,"2609 W Jackson","2609 W Jackson, Eastbound, Southwest Corner",41.87743145,-87.6916633,0,,1
38,38,"Jackson & Western","Jackson & Western, Eastbound, Southeast Corner",41.87749727,-87.68603149,0,,1
39,39,"Jackson & Oakley","Jackson & Oakley, Eastbound, Southeast Corner",41.87750385,-87.68365776,0,,1
40,40,"Jackson & Leavitt","Jackson & Leavitt, Eastbound, Southeast Corner",41.87755181,-87.6812767,0,,1
41,41,"Jackson & Hoyne","Jackson & Hoyne, Eastbound, Southeast Corner",41.87740287,-87.67874163,0,,1
42,42,"Jackson & Damen","Jackson & Damen, Eastbound, Southwest Corner",41.87742885,-87.67667812,0,,1
44,44,"Damen & Congress","Damen & Congress, Southbound, Northwest Corner",41.87514532,-87.67664815,0,,1
48,48,"Harrison & Wood","Harrison & Wood, Eastbound, Southeast Corner",41.87406685,-87.67133976,0,,1
51,51,"Ashland & Van Buren","Ashland & Van Buren, Northbound, Northeast Corner",41.87655943,-87.66652097,0,,1
52,52,"Malcolm X College","Malcolm X College, Eastbound, Southside of the Street",41.87744033,-87.67484661,0,,1
53,53,"Jackson & Ogden","Jackson & Ogden, Eastbound, Southwest Corner",41.87749518,-87.67104307,0,,1
54,54,"Jackson & Paulina","Jackson & Paulina, Eastbound, Southeast Corner",41.87753226,-87.66899623,0,,1
55,55,"Jackson & Ashland","Jackson & Ashland, Eastbound, Southwest Corner",41.87756252,-87.66689641,0,,1
56,56,"Jackson & Laflin","Jackson & Laflin, Eastbound, Southeast Corner",41.87759785,-87.66407376,0,,1
57,57,"Jackson & Loomis","Jackson & Loomis, Eastbound, Southeast Corner",41.87764185,-87.66165776,0,,1
59,59,"Jackson & Racine","Jackson & Racine, Eastbound, Southeast Corner",41.87773716,-87.65678492,0,,1
60,60,"Jackson & Aberdeen","Jackson & Aberdeen, Eastbound, Southeast Corner",41.87775885,-87.65434376,0,,1
61,61,"Jackson & Morgan","Jackson & Morgan, Eastbound, Southeast Corner",41.87781483,-87.65170444,0,,1
63,63,"Jackson & Peoria","Jackson & Peoria, Eastbound, Southeast Corner",41.87785604,-87.64946649,0,,1
64,64,"Jackson & Halsted","Jackson & Halsted, Eastbound, Southeast Corner",41.87789765,-87.64697233,0,,1
65,65,"Jackson & Desplaines","Jackson & Desplaines, Eastbound, Southeast Corner",41.87793472,-87.6437564,0,,1
67,67,"Jackson & Canal","Jackson & Canal, Eastbound, Southwest Corner",41.87800485,-87.63978175,0,,1
68,68,"Jackson & Franklin","Jackson & Franklin, Eastbound, Southwest Corner",41.87805885,-87.63540675,0,,1
69,69,"Jackson & Financial Place","Jackson & Financial Place, Eastbound, Southwest Corner",41.87808885,-87.63287375,0,,1
70,70,"Jackson & Dearborn","Jackson & Dearborn, Eastbound, Southwest Corner",41.87812885,-87.62947275,0,,1
71,71,"Jackson & State","Jackson & State, Eastbound, Southwest Corner",41.87814885,-87.62790475,0,,1
72,72,"Jackson & Wabash","Jackson & Wabash, Eastbound, Southeast Corner",41.87821585,-87.62575775,0,,1
73,73,"Michigan & Van Buren/Ida B. Wells","Michigan & Van Buren/Ida B. Wells, Southbound, Westside of the Street",41.87627885,-87.62440175,0,,1
74,74,"Congress Plaza & Michigan","Congress Plaza & Michigan, Northeastbound, Southeast Corner",41.87486595,-87.62355688,0,,1
75,75,"Michigan & Van Buren","Michigan & Van Buren, Northbound, Southeast Corner",41.87669785,-87.62416575,0,,1
76,76,"Michigan & Jackson","Michigan & Jackson, Northbound, Southeast Corner",41.87814285,-87.62419875,0,,1
77,77,"Adams & Wabash","Adams & Wabash, Westbound, Northeast Corner",41.87958285,-87.62588975,0,,1
80,80,"Adams & Wells","Adams & Wells, Westbound, Northwest Corner",41.87943385,-87.63402975,0,,1
84,84,"Van Buren & Canal","Van Buren & Canal, Westbound, Northeast Corner",41.87683533,-87.63938621,0,,1
86,86,"Van Buren & Jefferson","Van Buren & Jefferson, Westbound, Northeast Corner",41.87678585,-87.64232475,0,,1
88,88,"Van Buren & Halsted","Van Buren & Halsted, Westbound, Northeast Corner",41.87673385,-87.64705376,0,,1
89,89,"Van Buren & Peoria","Van Buren & Peoria, Westbound, Northeast Corner",41.87668985,-87.64940675,0,,1
92,92,"Van Buren & Aberdeen","Van Buren & Aberdeen, Westbound, Northeast Corner",41.87662473,-87.65441295,0,,1
93,93,"Van Buren & Racine","Van Buren & Racine, Westbound, Northeast Corner",41.87658368,-87.65680927,0,,1
96,96,"Van Buren & Laflin","Van Buren & Laflin, Westbound, Northeast Corner",41.8764545,-87.66410593,0,,1
97,97,"Van Buren & Ashland","Van Buren & Ashland, Westbound, Northeast Corner",41.87641733,-87.66647663,0,,1
99,99,"Van Buren & Ogden","Van Buren & Ogden, Westbound, Northeast Corner",41.87633688,-87.67188223,0,,1
100,100,"1900 W Van Buren","1900 W Van Buren, Westbound, Northside of the Street",41.87624985,-87.67406276,0,,1
101,101,"Van Buren & Damen","Van Buren & Damen, Westbound, Northeast Corner",41.87624785,-87.67607776,0,,1
103,103,"Harrison & Paulina","Harrison & Paulina, Westbound, Northside of the Street",41.87421785,-87.66897576,0,,1
107,107,"Harrison & Ogden","Harrison & Ogden, Westbound, Northeast Corner",41.87414935,-87.67455277,0,,1
108,108,"Harrison & Damen","Harrison & Damen, Westbound, Northeast Corner",41.87411719,-87.67632629,0,,1
111,111,"Damen & Jackson","Damen & Jackson, Northbound, Southeast Corner",41.87741727,-87.67635712,0,,1
118,118,"Jackson & Rockwell","Jackson & Rockwell, Westbound, Northeast Corner",41.87756679,-87.69097654,0,,1
119,119,"Jackson & Washtenaw","Jackson & Washtenaw, Westbound, Northwest Corner",41.87753288,-87.69403808,0,,1
120,120,"Jackson & California","Jackson & California, Westbound, Northwest Corner",41.8775037,-87.69648924,0,,1
122,122,"Jackson & Sacramento","Jackson & Sacramento, Westbound, Northwest Corner",41.87745114,-87.70134023,0,,1
123,123,"Jackson & Albany","Jackson & Albany, Westbound, Northwest Corner",41.87741767,-87.70378846,0,,1
124,124,"Jackson & Kedzie","Jackson & Kedzie, Westbound, Northwest Corner",41.87740304,-87.70628389,0,,1
126,126,"Jackson & Homan","Jackson & Homan, Westbound, Northwest Corner",41.877361,-87.7111231,0,,1
127,127,"Jackson & St. Louis","Jackson & St. Louis, Westbound, Northwest Corner",41.87731351,-87.71366145,0,,1
128,128,"Central Park & Jackson","Central Park & Jackson, Southbound, Southwest Corner",41.87702457,-87.71587528,0,,1
129,129,"Jackson & Hamlin","Jackson & Hamlin, Westbound, Northwest Corner",41.87721835,-87.7210538,0,,1
130,130,"Jackson & Springfield","Jackson & Springfield, Westbound, Northwest Corner",41.87717625,-87.72333069,0,,1
131,131,"Jackson & Pulaski","Jackson & Pulaski, Westbound, Northwest Corner",41.87714451,-87.72580051,0,,1
132,132,"Jackson & Karlov","Jackson & Karlov, Westbound, Northwest Corner",41.87711549,-87.72820129,0,,1
133,133,"Jackson & Keeler","Jackson & Keeler, Westbound, Northwest Corner",41.87708512,-87.73065451,0,,1
134,134,"Jackson & Kildare","Jackson & Kildare, Westbound, Northwest Corner",41.87710235,-87.73311192,0,,1
135,135,"Jackson & Kostner","Jackson & Kostner, Westbound, Northwest Corner",41.87702535,-87.73556149,0,,1
136,136,"Jackson & Kilbourn","Jackson & Kilbourn, Westbound, Northwest Corner",41.87699504,-87.73799678,0,,1
138,138,"Jackson & Kenton","Jackson & Kenton, Westbound, Northwest Corner",41.87697331,-87.74070166,0,,1
139,139,"Jackson & Kilpatrick","Jackson & Kilpatrick, Westbound, Northwest Corner",41.8769345,-87.7428132,0,,1
140,140,"Jackson & Cicero","Jackson & Cicero, Westbound, Northwest Corner",41.87686678,-87.74542476,0,,1
141,141,"4900 W Jackson","4900 W Jackson, Westbound, Northside of the Street",41.87682886,-87.74714481,0,,1
142,142,"Jackson & Lavergne","Jackson & Lavergne, Westbound, Northwest Corner",41.87677894,-87.74973704,0,,1
143,143,"5056 W Jackson","5056 W Jackson, Westbound, Northside of the Street",41.87676513,-87.75161796,0,,1
144,144,"Jackson & Leamington","Jackson & Leamington, Westbound, Northwest Corner",41.87673642,-87.75354107,0,,1
145,145,"Jackson & Laramie","Jackson & Laramie, Westbound, Northwest Corner",41.87673823,-87.75524578,0,,1
146,146,"Jackson & Lockwood","Jackson & Lockwood, Westbound, Northwest Corner",41.87668465,-87.75783513,0,,1
147,147,"5400 W Jackson","5400 W Jackson, Westbound, Northside of the Street",41.87665683,-87.75968403,0,,1
148,148,"Jackson & Lotus","Jackson & Lotus, Westbound, Northwest Corner",41.87661996,-87.76155127,0,,1
149,149,"Jackson & Central","Jackson & Central, Westbound, Northeast Corner",41.87661149,-87.76460404,0,,1
150,150,"5700 W Jackson","5700 W Jackson, Westbound, Northside of the Street",41.87717765,-87.76801871,0,,1
152,152,"Jackson & Mayfield","Jackson & Mayfield, Westbound, Northside of the Street",41.87724593,-87.77130849,0,,1
153,153,"Harrison & Central Terminal","Harrison & Central Terminal, Northbound, Bus Terminal",41.87269084,-87.76480578,0,,1
154,154,"Harrison & Lotus","Harrison & Lotus, Eastbound, Southside of the Street",41.87281085,-87.76165979,0,,1
155,155,"5400 W Harrison","5400 W Harrison, Eastbound, Southside of the Street",41.87290785,-87.75937279,0,,1
156,156,"Harrison & Lockwood","Harrison & Lockwood, Eastbound, Southwest Corner",41.87286285,-87.75752579,0,,1
157,157,"Harrison & Laramie","Harrison & Laramie, Eastbound, Southeast Corner",41.87289038,-87.75449681,0,,1
158,158,"Harrison & Leamington","Harrison & Leamington, Eastbound, Southside of the Street",41.87290094,-87.75319089,0,,1
159,159,"Harrison & Lavergne","Harrison & Lavergne, Eastbound, Southwest Corner",41.8730097,-87.7492141,0,,1
160,160,"Harrison & Cicero","Harrison & Cicero, Eastbound, Southwest Corner",41.87307247,-87.74515134,0,,1
161,161,"Harrison & Kilpatrick","Harrison & Kilpatrick, Eastbound, Southwest Corner",41.87310685,-87.74266678,0,,1
162,162,"4630 W Harrison","4630 W Harrison, Eastbound, Southside of the Street",41.87320585,-87.74089878,0,,1
163,163,"Harrison & Kolmar","Harrison & Kolmar, Eastbound, Southwest Corner",41.87321285,-87.73949378,0,,1
164,164,"Harrison & Kilbourn","Harrison & Kilbourn, Eastbound, Southwest Corner",41.87322127,-87.73795427,0,,1
165,165,"Harrison & Kostner","Harrison & Kostner, Eastbound, Southwest Corner",41.87377219,-87.73550165,0,,1
166,166,"Kostner & Lexington","Kostner & Lexington, Southbound, Northwest Corner",41.87163685,-87.73522878,0,,1
167,167,"Fifth Avenue & Kostner","Fifth Avenue & Kostner, Northeastbound, Southeast Corner",41.8702706,-87.73495763,0,,1
168,168,"Fifth Avenue & Kildare","Fifth Avenue & Kildare, Northeastbound, Southwest Corner",41.87090772,-87.73270669,0,,1
169,169,"Fifth Avenue & Keeler","Fifth Avenue & Keeler, Northeastbound, Southwest Corner",41.87160785,-87.73010778,0,,1
170,170,"Fifth Avenue & Karlov","Fifth Avenue & Karlov, Northeastbound, Southwest Corner",41.87230485,-87.72760878,0,,1
171,171,"Fifth Avenue & Pulaski","Fifth Avenue & Pulaski, Northeastbound, Southwest Corner",41.87290333,-87.72557642,0,,1
172,172,"Harrison & Springfield","Harrison & Springfield, Eastbound, Southwest Corner",41.87342685,-87.72309278,0,,1
174,174,"Harrison & Independence","Harrison & Independence, Eastbound, Southeast Corner",41.87346485,-87.71957078,0,,1
175,175,"Harrison & Lawndale","Harrison & Lawndale, Eastbound, Southwest Corner",41.87347685,-87.71822178,0,,1
177,177,"Harrison & St. Louis","Harrison & St. Louis, Eastbound, Southwest Corner",41.87354885,-87.71333277,0,,1
178,178,"Harrison & Homan","Harrison & Homan, Eastbound, Southwest Corner",41.87357385,-87.71088577,0,,1
179,179,"Harrison & Spaulding","Harrison & Spaulding, Eastbound, Southwest Corner",41.87360985,-87.70846677,0,,1
181,181,"Harrison & Albany","Harrison & Albany, Eastbound, Southwest Corner",41.87365961,-87.70351956,0,,1
182,182,"Harrison & Sacramento","Harrison & Sacramento, Eastbound, Southwest Corner",41.8736976,-87.70105456,0,,1
183,183,"Harrison & Francisco","Harrison & Francisco, Eastbound, Southwest Corner",41.87372385,-87.69866677,0,,1
185,185,"Harrison & Washtenaw","Harrison & Washtenaw, Eastbound, Southwest Corner",41.87376285,-87.69378477,0,,1
186,186,"Harrison & Maplewood","Harrison & Maplewood, Eastbound, Southwest Corner",41.87379285,-87.69071077,0,,1
187,187,"Harrison & Campbell","Harrison & Campbell, Eastbound, Southwest Corner",41.87381185,-87.68880277,0,,1
188,188,"Harrison & Western","Harrison & Western, Eastbound, Southwest Corner",41.87383119,-87.68641377,0,,1
189,189,"Harrison & Oakley","Harrison & Oakley, Eastbound, Southwest Corner",41.87388985,-87.68391877,0,,1
190,190,"Harrison & Leavitt","Harrison & Leavitt, Eastbound, Southwest Corner",41.87391885,-87.68145476,0,,1
191,191,"Harrison & Hoyne","Harrison & Hoyne, Eastbound, Southwest Corner",41.87395785,-87.67899576,0,,1
193,193,"Harrison & Ashland","Harrison & Ashland, Eastbound, Southwest Corner",41.87411343,-87.66679946,0,,1
198,198,"Harrison & Racine","Harrison & Racine, Eastbound, Southwest Corner",41.87419885,-87.65717276,0,,1
200,200,"Harrison & Morgan","Harrison & Morgan, Eastbound, Southside of the Street",41.87429085,-87.65194376,0,,1
201,201,"900 W Harrison","900 W Harrison, Eastbound, Southside of the Street",41.87434885,-87.64913776,0,,1
205,205,"UIC-Halsted Blue Line Station","UIC-Halsted Blue Line Station, Southbound, Westside of the Street",41.87550785,-87.64725975,0,,1
206,206,"Harrison & Halsted","Harrison & Halsted, Westbound, Northwest Corner",41.87444885,-87.64775575,0,,1
207,207,"900 W Harrison","900 W Harrison, Westbound, Northside of the Street",41.87448546,-87.64986857,0,,1
208,208,"Harrison & Morgan","Harrison & Morgan, Westbound, Northeast Corner",41.87447085,-87.65158876,0,,1
210,210,"Harrison & Racine","Harrison & Racine, Westbound, Northwest Corner",41.87433785,-87.65745276,0,,1
216,216,"Harrison & Hoyne","Harrison & Hoyne, Westbound, Northeast Corner",41.87404485,-87.67873476,0,,1
217,217,"Harrison & Leavitt","Harrison & Leavitt, Westbound, Northeast Corner",41.87401685,-87.68121076,0,,1
218,218,"Harrison & Oakley","Harrison & Oakley, Westbound, Northeast Corner",41.87399537,-87.68359471,0,,1
220,220,"Harrison & Campbell","Harrison & Campbell, Westbound, Northeast Corner",41.87392985,-87.68854877,0,,1
221,221,"Harrison & Maplewood","Harrison & Maplewood, Westbound, Northeast Corner",41.87392085,-87.69049877,0,,1
222,222,"Harrison & Washtenaw","Harrison & Washtenaw, Westbound, Northeast Corner",41.87385785,-87.69358477,0,,1
224,224,"Harrison & Francisco","Harrison & Francisco, Westbound, Northeast Corner",41.87381685,-87.69841077,0,,1
225,225,"Harrison & Sacramento","Harrison & Sacramento, Westbound, Northeast Corner",41.87386648,-87.70085674,0,,1
226,226,"Harrison & Albany","Harrison & Albany, Westbound, Northeast Corner",41.87383048,-87.70329775,0,,1
227,227,"Harrison & Kedzie","Harrison & Kedzie, Westbound, Northeast Corner",41.87376025,-87.70572473,0,,1
228,228,"Congress & Kedzie","Congress & Kedzie, Westbound, Northwest Corner",41.87497523,-87.70608926,0,,1
229,229,"Congress & Spaulding","Congress & Spaulding, Westbound, Northeast Corner",41.87460959,-87.70824509,0,,1
230,230,"Congress & Homan","Congress & Homan, Westbound, Northeast Corner",41.87460259,-87.71054309,0,,1
231,231,"Congress & St. Louis","Congress & St. Louis, Westbound, Northeast Corner",41.87438451,-87.71239605,0,,1
233,233,"3700 W Congress","3700 W Congress, Westbound, Northside of the Street",41.87453781,-87.71791086,0,,1
234,234,"Congress & Hamlin/Independence","Congress & Hamlin/Independence, Westbound, Northeast Corner",41.87451733,-87.71961994,0,,1
235,235,"Congress & Springfield","Congress & Springfield, Westbound, Northeast Corner",41.87450385,-87.72259378,0,,1
237,237,"Congress & Karlov","Congress & Karlov, Westbound, Northeast Corner",41.87440653,-87.72775279,0,,1
239,239,"Congress & Kildare","Congress & Kildare, Westbound, Northeast Corner",41.87435429,-87.73270879,0,,1
240,240,"Harrison & Kostner","Harrison & Kostner, Westbound, Northwest Corner",41.87378259,-87.7357051,0,,1
241,241,"Harrison & Kilbourn","Harrison & Kilbourn, Westbound, Northeast Corner",41.87335215,-87.73747524,0,,1
242,242,"Harrison & Kolmar","Harrison & Kolmar, Westbound, Northeast Corner",41.87331008,-87.73914453,0,,1
243,243,"4630 W Harrison","4630 W Harrison, Westbound, Northside of the Street",41.87325648,-87.74083009,0,,1
244,244,"Harrison & Kilpatrick","Harrison & Kilpatrick, Westbound, Northeast Corner",41.87320602,-87.74242219,0,,1
246,246,"Harrison & Lavergne","Harrison & Lavergne, Westbound, Northeast Corner",41.87308181,-87.74899335,0,,1
247,247,"Harrison & Leamington","Harrison & Leamington, Westbound, Northeast Corner",41.87306137,-87.75320701,0,,1
248,248,"Harrison & Laramie","Harrison & Laramie, Westbound, Northeast Corner",41.87302624,-87.75465645,0,,1
249,249,"Harrison & Lockwood","Harrison & Lockwood, Westbound, Northeast Corner",41.87296136,-87.75730902,0,,1
250,250,"5400 W Harrison","5400 W Harrison, Westbound, Northside of the Street",41.87296047,-87.75948602,0,,1
252,252,"Harrison & Central","Harrison & Central, Westbound, Northeast Corner",41.8729318,-87.76448301,0,,1
257,257,"5500W Roosevelt","5500W Roosevelt, Eastbound, Southside of the Street",41.86555861,-87.76277863,0,,1
258,258,"Roosevelt & 54th Avenue","Roosevelt & 54th Avenue, Eastbound, Southwest Corner",41.86560082,-87.75946501,0,,1
259,259,"5300 W. Roosevelt","5300 W. Roosevelt, Eastbound, Southside of the Street",41.86565722,-87.75705856,0,,1
260,260,"Roosevelt & Laramie","Roosevelt & Laramie, Eastbound, Southwest Corner",41.86565643,-87.7546797,0,,1
261,261,"Roosevelt & 51st Avenue","Roosevelt & 51st Avenue, Eastbound, Southwest Corner",41.86574288,-87.75214404,0,,1
262,262,"Roosevelt & 50th Avenue","Roosevelt & 50th Avenue, Eastbound, Southwest Corner",41.86575762,-87.74976505,0,,1
263,263,"Roosevelt & 49th Avenue","Roosevelt & 49th Avenue, Eastbound, Southwest Corner",41.86579576,-87.74733325,0,,1
265,265,"Roosevelt & 47th Avenue","Roosevelt & 47th Avenue, Eastbound, Southwest Corner",41.86586623,-87.74241643,0,,1
268,268,"Roosevelt & Kilbourn","Roosevelt & Kilbourn, Eastbound, Southwest Corner",41.86593515,-87.73750567,0,,1
270,270,"Roosevelt & Kildare","Roosevelt & Kildare, Eastbound, Southwest Corner",41.8660058,-87.732603,0,,1
272,272,"Roosevelt & Karlov","Roosevelt & Karlov, Eastbound, Southwest Corner",41.86608285,-87.72772678,0,,1
274,274,"Roosevelt & Springfield","Roosevelt & Springfield, Eastbound, Southwest Corner",41.86612293,-87.72282704,0,,1
275,275,"Roosevelt & Independence","Roosevelt & Independence, Eastbound, Southwest Corner",41.86615631,-87.72026823,0,,1
277,277,"Roosevelt & Lawndale","Roosevelt & Lawndale, Eastbound, Southwest Corner",41.86618561,-87.71794769,0,,1
278,278,"Roosevelt & Central Park","Roosevelt & Central Park, Eastbound, Southwest Corner",41.86621189,-87.71564039,0,,1
279,279,"Roosevelt & St. Louis","Roosevelt & St. Louis, Eastbound, Southwest Corner",41.86626585,-87.71308677,0,,1
283,283,"Roosevelt & Albany","Roosevelt & Albany, Eastbound, Southwest Corner",41.86635347,-87.70325277,0,,1
284,284,"Roosevelt & Sacramento","Roosevelt & Sacramento, Eastbound, Southwest Corner",41.86637815,-87.70095927,0,,1
285,285,"Roosevelt & Francisco","Roosevelt & Francisco, Eastbound, Southside of the Street",41.86642685,-87.69843277,0,,1
287,287,"Roosevelt & Washtenaw","Roosevelt & Washtenaw, Eastbound, Southwest Corner",41.86648285,-87.69353277,0,,1
288,288,"Roosevelt & Talman","Roosevelt & Talman, Eastbound, Southwest Corner",41.86649285,-87.69230777,0,,1
296,296,"Roosevelt & Wolcott","Roosevelt & Wolcott, Eastbound, Southside of the Street",41.8666326,-87.67357317,0,,1
297,297,"Roosevelt & Wood","Roosevelt & Wood, Eastbound, Southwest Corner",41.86665128,-87.67147397,0,,1
298,298,"Roosevelt & Paulina","Roosevelt & Paulina, Eastbound, Southside of the Street",41.86669842,-87.6690135,0,,1
300,300,"Roosevelt & Laflin","Roosevelt & Laflin, Eastbound, Southwest Corner",41.86677527,-87.66410565,0,,1
302,302,"Roosevelt & Throop","Roosevelt & Throop, Eastbound, Southwest Corner",41.86685398,-87.65926234,0,,1
303,303,"Roosevelt & Racine","Roosevelt & Racine, Eastbound, Southwest Corner",41.86689478,-87.6568219,0,,1
305,305,"Roosevelt & Blue Island","Roosevelt & Blue Island, Eastbound, Southwest Corner",41.8669458,-87.65361104,0,,1
306,306,"Roosevelt & Morgan","Roosevelt & Morgan, Eastbound, Southwest Corner",41.86703739,-87.65122947,0,,1
307,307,"900 W Roosevelt","900 W Roosevelt, Eastbound, Southside of the Street",41.86701396,-87.6494113,0,,1
310,310,"Roosevelt & Jefferson","Roosevelt & Jefferson, Eastbound, Southwest Corner",41.86712646,-87.64227639,0,,1
312,312,"Roosevelt & Canal","Roosevelt & Canal, Eastbound, Southeast Corner",41.86714676,-87.63883173,0,,1
315,315,"Roosevelt & Clark","Roosevelt & Clark, Eastbound, Southwest Corner",41.86724646,-87.63061186,0,,1
316,316,"Roosevelt & State","Roosevelt & State, Eastbound, Southeast Corner",41.86729484,-87.6271163,0,,1
326,326,"327 W Roosevelt","327 W Roosevelt, Westbound, Northside of the Street",41.86742411,-87.63554935,0,,1
327,327,"Roosevelt & Canal","Roosevelt & Canal, Westbound, Northeast Corner",41.86740804,-87.63906117,0,,1
332,332,"900 W Roosevelt","900 W Roosevelt, Westbound, Northside of the Street",41.86722706,-87.6494372,0,,1
333,333,"Roosevelt & Morgan","Roosevelt & Morgan, Westbound, Northeast Corner",41.86719657,-87.65089924,0,,1
334,334,"Roosevelt & Blue Island","Roosevelt & Blue Island, Westbound, Northside of the Street",41.86717505,-87.65308541,0,,1
335,335,"Roosevelt & May","Roosevelt & May, Westbound, Northeast Corner",41.86712126,-87.65499687,0,,1
336,336,"Roosevelt & Racine","Roosevelt & Racine, Westbound, Northeast Corner",41.86711318,-87.65652081,0,,1
337,337,"Roosevelt & Throop","Roosevelt & Throop, Westbound, Northeast Corner",41.86707394,-87.65904044,0,,1
341,341,"Roosevelt & Paulina","Roosevelt & Paulina, Westbound, Northeast Corner",41.86703661,-87.66879849,0,,1
342,342,"Roosevelt & Wood","Roosevelt & Wood, Westbound, Northeast Corner",41.86701154,-87.67112898,0,,1
343,343,"Roosevelt & Wolcott","Roosevelt & Wolcott, Westbound, Northeast Corner",41.86696721,-87.67354398,0,,1
344,344,"Roosevelt & Damen","Roosevelt & Damen, Westbound, Northeast Corner",41.86694318,-87.67595854,0,,1
348,348,"Roosevelt & Western","Roosevelt & Western, Westbound, Northeast Corner",41.8667238,-87.68586026,0,,1
349,349,"Roosevelt & Campbell","Roosevelt & Campbell, Westbound, Northwest Corner",41.86669193,-87.68878149,0,,1
350,350,"Roosevelt & Talman","Roosevelt & Talman, Westbound, Northside of the Street",41.86660486,-87.69217277,0,,1
351,351,"Roosevelt & Washtenaw","Roosevelt & Washtenaw, Westbound, Northeast Corner",41.86664268,-87.69330786,0,,1
353,353,"Roosevelt & Francisco","Roosevelt & Francisco, Westbound, Northeast Corner",41.86657293,-87.69825689,0,,1
354,354,"Roosevelt & Sacramento","Roosevelt & Sacramento, Westbound, Northeast Corner",41.8665476,-87.70065175,0,,1
355,355,"Roosevelt & Albany","Roosevelt & Albany, Westbound, Northeast Corner",41.86651976,-87.70315054,0,,1
356,356,"Roosevelt & Kedzie","Roosevelt & Kedzie, Westbound, Northeast Corner",41.86650842,-87.70540846,0,,1
357,357,"Roosevelt & Spaulding","Roosevelt & Spaulding, Westbound, Northeast Corner",41.86645756,-87.70793171,0,,1
358,358,"Roosevelt & Homan","Roosevelt & Homan, Westbound, Northeast Corner",41.86642578,-87.71027553,0,,1
359,359,"Roosevelt & St. Louis","Roosevelt & St. Louis, Westbound, Northeast Corner",41.86641244,-87.7128794,0,,1
361,361,"Roosevelt & Lawndale","Roosevelt & Lawndale, Westbound, Northside of the Street",41.86635319,-87.71777095,0,,1
362,362,"Roosevelt & Independence","Roosevelt & Independence, Westbound, Northeast Corner",41.86633338,-87.71939103,0,,1
364,364,"Roosevelt & Springfield","Roosevelt & Springfield, Westbound, Northeast Corner",41.86629257,-87.72266503,0,,1
365,365,"Roosevelt & Pulaski","Roosevelt & Pulaski, Westbound, Northeast Corner",41.86626185,-87.72504652,0,,1
366,366,"Roosevelt & Karlov","Roosevelt & Karlov, Westbound, Northeast Corner",41.86621702,-87.72754883,0,,1
367,367,"Roosevelt & Keeler","Roosevelt & Keeler, Westbound, Northeast Corner",41.86619221,-87.72995813,0,,1
368,368,"Roosevelt & Kildare","Roosevelt & Kildare, Westbound, Northeast Corner",41.86613089,-87.73236299,0,,1
369,369,"Roosevelt & Kostner","Roosevelt & Kostner, Westbound, Northeast Corner",41.86611191,-87.73480342,0,,1
370,370,"Roosevelt & Kilbourn","Roosevelt & Kilbourn, Westbound, Northeast Corner",41.86607645,-87.73720821,0,,1
373,373,"Roosevelt & 47th Avenue","Roosevelt & 47th Avenue, Westbound, Northside of the Street",41.86602601,-87.74225929,0,,1
375,375,"Roosevelt & 49th Avenue","Roosevelt & 49th Avenue, Westbound, Northside of the Street",41.86594089,-87.74703541,0,,1
376,376,"Roosevelt & 50th Avenue","Roosevelt & 50th Avenue, Westbound, Northside of the Street",41.8659103,-87.74946854,0,,1
377,377,"Roosevelt & 51st Avenue","Roosevelt & 51st Avenue, Westbound, Northside of the Street",41.8658569,-87.7520362,0,,1
379,379,"5300 W Roosevelt","5300 W Roosevelt, Westbound, Northside of the Street",41.86582258,-87.75701849,0,,1
380,380,"Roosevelt & 54th Avenue","Roosevelt & 54th Avenue, Westbound, Northside of the Street",41.86577556,-87.75926685,0,,1
381,381,"5500 W Roosevelt","5500 W Roosevelt, Westbound, Northside of the Street",41.86572287,-87.76210458,0,,1
382,382,"Roosevelt & Central","Roosevelt & Central, Westbound, Northeast Corner",41.86567416,-87.7641751,0,,1
386,386,"Madison & Austin Terminal","Madison & Austin Terminal, Southbound, Bus Terminal",41.88032085,-87.77404879,0,,1
388,388,"Madison & Mayfield","Madison & Mayfield, Eastbound, Southwest Corner",41.880017,-87.77147809,0,,1
389,389,"Madison & Menard","Madison & Menard, Eastbound, Southwest Corner",41.88009561,-87.7699277,0,,1
390,390,"Madison & Waller","Madison & Waller, Eastbound, Southside of the Street",41.88011261,-87.7682207,0,,1
391,391,"Madison & Parkside","Madison & Parkside, Eastbound, Southwest Corner",41.88015461,-87.7666227,0,,1
394,394,"Madison & Lotus","Madison & Lotus, Eastbound, Southwest Corner",41.8802106,-87.7619247,0,,1
395,395,"Madison & Long","Madison & Long, Eastbound, Southside of the Street",41.88020766,-87.75997294,0,,1
396,396,"Madison & Lockwood","Madison & Lockwood, Eastbound, Southwest Corner",41.88025972,-87.75779544,0,,1
397,397,"Madison & Laramie","Madison & Laramie, Eastbound, Southwest Corner",41.88027785,-87.75526579,0,,1
402,402,"Madison & Kilpatrick","Madison & Kilpatrick, Eastbound, Southwest Corner",41.88045085,-87.74300378,0,,1
403,403,"Madison & Kenton","Madison & Kenton, Eastbound, Southwest Corner",41.88048285,-87.74071078,0,,1
406,406,"Madison & Kildare","Madison & Kildare, Eastbound, Southwest Corner",41.88053848,-87.73312988,0,,1
409,409,"Madison & Pulaski","Madison & Pulaski, Eastbound, Southwest Corner",41.88062207,-87.72582924,0,,1
412,412,"Madison & Central Park","Madison & Central Park, Eastbound, Southwest Corner",41.88081505,-87.71598028,0,,1
413,413,"Madison & St. Louis","Madison & St. Louis, Eastbound, Southwest Corner",41.88082173,-87.71382541,0,,1
415,415,"Madison & Spaulding","Madison & Spaulding, Eastbound, Southwest Corner",41.88089485,-87.70872777,0,,1
416,416,"Madison & Kedzie","Madison & Kedzie, Eastbound, Southwest Corner",41.88090985,-87.70633877,0,,1
417,417,"Madison & Albany","Madison & Albany, Eastbound, Southwest Corner",41.88095985,-87.70315277,0,,1
420,420,"Madison & California","Madison & California, Eastbound, Southeast Corner",41.88101643,-87.69601342,0,,1
421,421,"Madison & Washtenaw","Madison & Washtenaw, Eastbound, Southwest Corner",41.8810403,-87.69405377,0,,1
423,423,"Madison & Campbell","Madison & Campbell, Eastbound, Southwest Corner",41.88107037,-87.68898223,0,,1
425,425,"Madison & Oakley","Madison & Oakley, Eastbound, Southwest Corner",41.88113582,-87.68411573,0,,1
427,427,"Madison & Hoyne","Madison & Hoyne, Eastbound, Southwest Corner",41.88123985,-87.67929877,0,,1
428,428,"Madison & Damen","Madison & Damen, Eastbound, Southwest Corner",41.88126985,-87.67685576,0,,1
429,429,"Madison & United Center (1900 W)","Madison & United Center (1900 W), Eastbound, Southside of the Street",41.88130459,-87.6742524,0,,1
430,430,"Madison & Wood","Madison & Wood, Eastbound, Southwest Corner",41.88133626,-87.67186882,0,,1
431,431,"Madison & Paulina","Madison & Paulina, Eastbound, Southwest Corner",41.88137785,-87.66951876,0,,1
432,432,"Madison & Ashland","Madison & Ashland, Eastbound, Southwest Corner",41.88140246,-87.66700553,0,,1
435,435,"Madison & Throop","Madison & Throop, Eastbound, Southwest Corner",41.88153285,-87.65977076,0,,1
436,436,"Madison & Racine","Madison & Racine, Eastbound, Southwest Corner",41.88155285,-87.65733876,0,,1
437,437,"Madison & Aberdeen","Madison & Aberdeen, Eastbound, Southwest Corner",41.88161585,-87.65490276,0,,1
439,439,"Madison & Peoria","Madison & Peoria, Eastbound, Southwest Corner",41.8816856,-87.64984351,0,,1
440,440,"Halsted & Madison","Halsted & Madison, Northbound, Northeast Corner",41.88200785,-87.64728576,0,,1
442,442,"Washington & Jefferson","Washington & Jefferson, Eastbound, Southwest Corner",41.88311785,-87.64285375,0,,1
443,443,"Washington & Canal","Washington & Canal, Eastbound, Southwest Corner",41.88309185,-87.63998175,0,,1
445,445,"Washington & Franklin","Washington & Franklin, Eastbound, Southwest Corner",41.88313585,-87.63552175,0,,1
446,446,"Washington & Lasalle","Washington & Lasalle, Eastbound, Southwest Corner",41.88314485,-87.63263075,0,,1
448,448,"Washington & State","Washington & State, Eastbound, Southeast Corner",41.88317743,-87.6275027,0,,1
449,449,"Washington & Wabash","Washington & Wabash, Eastbound, Southeast Corner",41.88316685,-87.62597175,0,,1
450,450,"Madison & Wabash","Madison & Wabash, Westbound, Northeast Corner",41.88214785,-87.62597875,0,,1
455,455,"Madison & Clinton","Madison & Clinton, Westbound, Northeast Corner",41.8819552,-87.64104917,0,,1
456,456,"Madison & Jefferson","Madison & Jefferson, Westbound, Northwest Corner",41.88192248,-87.64284114,0,,1
458,458,"Madison & Peoria","Madison & Peoria, Westbound, Northeast Corner",41.88180785,-87.64948276,0,,1
459,459,"Madison & Morgan","Madison & Morgan, Westbound, Northeast Corner",41.88177485,-87.65183876,0,,1
460,460,"Madison & Aberdeen","Madison & Aberdeen, Westbound, Northeast Corner",41.88172985,-87.65420076,0,,1
462,462,"Madison & Throop","Madison & Throop, Westbound, Northeast Corner",41.88164785,-87.65948876,0,,1
463,463,"Madison & Loomis","Madison & Loomis, Westbound, Northeast Corner",41.88159485,-87.66204576,0,,1
464,464,"Madison & Laflin","Madison & Laflin, Westbound, Northside of the Street",41.88155585,-87.66449576,0,,1
465,465,"Madison & Ashland","Madison & Ashland, Westbound, Northeast Corner",41.88153085,-87.66657276,0,,1
466,466,"Madison & Paulina","Madison & Paulina, Westbound, Northeast Corner",41.88149785,-87.66911876,0,,1
468,468,"Madison & United Center (1900 W)","Madison & United Center (1900 W), Westbound, Northside of the Street",41.88142657,-87.67424314,0,,1
469,469,"Madison & Damen","Madison & Damen, Westbound, Northeast Corner",41.88140585,-87.67645376,0,,1
470,470,"Madison & Hoyne","Madison & Hoyne, Westbound, Northeast Corner",41.88134485,-87.67892876,0,,1
473,473,"Madison & Western","Madison & Western, Westbound, Northeast Corner",41.88124285,-87.68619877,0,,1
478,478,"Madison & Francisco","Madison & Francisco, Westbound, Northeast Corner",41.88111085,-87.69855777,0,,1
479,479,"Madison & Sacramento","Madison & Sacramento, Westbound, Northeast Corner",41.88109585,-87.70106777,0,,1
480,480,"Madison & Albany","Madison & Albany, Westbound, Northeast Corner",41.88105985,-87.70346277,0,,1
482,482,"Madison & Spaulding","Madison & Spaulding, Westbound, Northside of the Street",41.88099985,-87.70857777,0,,1
484,484,"Madison & St. Louis","Madison & St. Louis, Westbound, Northside of the Street",41.88095085,-87.71377777,0,,1
485,485,"Madison & Central Park","Madison & Central Park, Westbound, Northeast Corner",41.88093349,-87.71582539,0,,1
486,486,"Madison & Hamlin","Madison & Hamlin, Westbound, Northwest Corner",41.88087339,-87.72098393,0,,1
487,487,"Madison & Springfield","Madison & Springfield, Westbound, Northside of the Street",41.88081346,-87.72310928,0,,1
494,494,"Madison & Kenton","Madison & Kenton, Westbound, Northside of the Street",41.88065785,-87.74060378,0,,1
495,495,"Madison & Kilpatrick","Madison & Kilpatrick, Westbound, Northeast Corner",41.88063985,-87.74259578,0,,1
496,496,"Madison & Cicero","Madison & Cicero, Westbound, Northeast Corner",41.88061719,-87.7451286,0,,1
497,497,"Madison & Lamon","Madison & Lamon, Westbound, Northeast Corner",41.88057844,-87.74752428,0,,1
498,498,"Madison & Lavergne","Madison & Lavergne, Westbound, Northeast Corner",41.88055987,-87.75004459,0,,1
499,499,"Madison & Leclaire","Madison & Leclaire, Westbound, Northeast Corner",41.88050135,-87.75246815,0,,1
502,502,"Madison & Long","Madison & Long, Westbound, Northeast Corner",41.88041895,-87.75996977,0,,1
505,505,"Madison & Central","Madison & Central, Westbound, Northeast Corner",41.88036488,-87.76469751,0,,1
506,506,"Madison & Parkside","Madison & Parkside, Westbound, Northeast Corner",41.88031841,-87.76639465,0,,1
507,507,"Madison & Waller","Madison & Waller, Westbound, Northeast Corner",41.88029141,-87.76804165,0,,1
508,508,"Madison & Menard","Madison & Menard, Westbound, Northeast Corner",41.88027341,-87.76966665,0,,1
509,509,"Madison & Mayfield","Madison & Mayfield, Westbound, Northeast Corner",41.88023441,-87.7716668,0,,1
510,510,"Chicago & Austin Terminal","Chicago & Austin Terminal, Southbound, Bus Terminal",41.89493338,-87.774849,0,,1
515,515,"Chicago & Central","Chicago & Central, Eastbound, Southwest Corner",41.89479828,-87.76552971,0,,1
516,516,"Chicago & Pine","Chicago & Pine, Eastbound, Southwest Corner",41.89482085,-87.76368679,0,,1
518,518,"Chicago & Lockwood","Chicago & Lockwood, Eastbound, Southwest Corner",41.89486485,-87.75815779,0,,1
520,520,"Chicago & Leclaire","Chicago & Leclaire, Eastbound, Southwest Corner",41.89489985,-87.75325579,0,,1
522,522,"Chicago & Lamon","Chicago & Lamon, Eastbound, Southwest Corner",41.89492476,-87.74831155,0,,1
523,523,"Chicago & Cicero","Chicago & Cicero, Eastbound, Southwest Corner",41.89491352,-87.74594268,0,,1
524,524,"Chicago & Kilpatrick","Chicago & Kilpatrick, Eastbound, Southwest Corner",41.89498576,-87.74358055,0,,1
525,525,"Chicago & Kilbourn","Chicago & Kilbourn, Eastbound, Southside of the Street",41.89507405,-87.73840331,0,,1
527,527,"Chicago & Kildare","Chicago & Kildare, Eastbound, Southside of the Street",41.89516721,-87.73356787,0,,1
528,528,"Chicago & Keeler","Chicago & Keeler, Eastbound, Southside of the Street",41.89518804,-87.7310432,0,,1
529,529,"Chicago & Karlov","Chicago & Karlov, Eastbound, Southside of the Street",41.89523854,-87.72860506,0,,1
530,530,"Chicago & Pulaski","Chicago & Pulaski, Eastbound, Southwest Corner",41.89529755,-87.72621657,0,,1
531,531,"Chicago & Springfield","Chicago & Springfield, Eastbound, Southwest Corner",41.89535802,-87.7237095,0,,1
535,535,"Chicago & St. Louis","Chicago & St. Louis, Eastbound, Southwest Corner",41.8954139,-87.71398902,0,,1
537,537,"Chicago & Spaulding","Chicago & Spaulding, Eastbound, Southwest Corner",41.89541688,-87.70906678,0,,1
538,538,"Chicago & Kedzie","Chicago & Kedzie, Eastbound, Southwest Corner",41.89548208,-87.70669667,0,,1
540,540,"Chicago & Sacramento","Chicago & Sacramento, Eastbound, Southwest Corner",41.8955223,-87.70256275,0,,1
543,543,"Chicago & Grand","Chicago & Grand, Eastbound, Southeast Corner",41.8955674,-87.6991223,0,,1
544,544,"Chicago & California","Chicago & California, Eastbound, Southwest Corner",41.89558089,-87.69681202,0,,1
545,545,"Chicago & Washtenaw","Chicago & Washtenaw, Eastbound, Southwest Corner",41.89559929,-87.6943615,0,,1
547,547,"Chicago & Campbell","Chicago & Campbell, Eastbound, Southwest Corner",41.89563598,-87.68941975,0,,1
550,550,"Chicago & Leavitt","Chicago & Leavitt, Eastbound, Southwest Corner",41.89575645,-87.68207532,0,,1
551,551,"Chicago & Hoyne","Chicago & Hoyne, Eastbound, Southwest Corner",41.89579526,-87.6796031,0,,1
552,552,"Chicago & Damen","Chicago & Damen, Eastbound, Southwest Corner",41.89583864,-87.67719745,0,,1
553,553,"Chicago & Wolcott","Chicago & Wolcott, Eastbound, Southwest Corner",41.89587789,-87.67474831,0,,1
556,556,"Chicago & Ashland","Chicago & Ashland, Eastbound, Southwest Corner",41.8960009,-87.66747986,0,,1
557,557,"Chicago & Bishop","Chicago & Bishop, Eastbound, Southwest Corner",41.89605199,-87.6641516,0,,1
559,559,"Chicago & Elizabeth","Chicago & Elizabeth, Eastbound, Southwest Corner",41.89612957,-87.65956623,0,,1
561,561,"Chicago & Milwaukee (Blue Line)","Chicago & Milwaukee (Blue Line), Eastbound, Southwest Corner",41.89620469,-87.65554887,0,,1
572,572,"Chicago & Franklin (Brown line)","Chicago & Franklin (Brown line), Eastbound, Southwest Corner",41.89648162,-87.63591812,0,,1
574,574,"Chicago & LaSalle","Chicago & LaSalle, Eastbound, Southwest Corner",41.89652555,-87.63295789,0,,1
580,580,"Chicago & Michigan","Chicago & Michigan, Eastbound, Southwest Corner",41.8966687,-87.62453585,0,,1
582,582,"Chicago & Fairbanks","Chicago & Fairbanks, Eastbound, Southwest Corner",41.89672386,-87.62053575,0,,1
584,584,"Fairbanks & Huron","Fairbanks & Huron, Southbound, Northwest Corner",41.89513486,-87.62038075,0,,1
587,587,"Fairbanks & Ohio","Fairbanks & Ohio, Southbound, Southwest Corner",41.89234786,-87.62038575,0,,1
589,589,"Grand & McClurg","Grand & McClurg, Westbound, Northwest Corner",41.8919258,-87.61799011,0,,1
590,590,"Grand & Fairbanks/Columbus","Grand & Fairbanks/Columbus, Westbound, Northeast Corner",41.89186986,-87.62001475,0,,1
593,593,"Fairbanks & Erie","Fairbanks & Erie, Northbound, Southeast Corner",41.89408886,-87.62022975,0,,1
595,595,"Fairbanks & Superior","Fairbanks & Superior, Northbound, Southeast Corner",41.89569686,-87.62029075,0,,1
596,596,"Fairbanks & Chicago","Fairbanks & Chicago, Northbound, Southeast Corner",41.89665286,-87.62031675,0,,1
597,597,"Chicago & Mies Van Der Rohe","Chicago & Mies Van Der Rohe, Westbound, Northeast Corner",41.89684602,-87.62171442,0,,1
599,599,"Chicago & Michigan","Chicago & Michigan, Westbound, Northwest Corner",41.89680823,-87.62449911,0,,1
601,601,"Chicago & State (Red Line)","Chicago & State (Red Line), Westbound, Northeast Corner",41.89674889,-87.62802819,0,,1
618,618,"Chicago & Racine","Chicago & Racine, Westbound, Northeast Corner",41.89631654,-87.65740396,0,,1
621,621,"Chicago & Greenview","Chicago & Greenview, Westbound, Northeast Corner",41.89620485,-87.66469676,0,,1
622,622,"Chicago & Ashland","Chicago & Ashland, Westbound, Northeast Corner",41.89615926,-87.66708492,0,,1
625,625,"Chicago & Wolcott","Chicago & Wolcott, Westbound, Northeast Corner",41.8960386,-87.67449577,0,,1
631,631,"Chicago & Campbell","Chicago & Campbell, Westbound, Northeast Corner",41.89580432,-87.689164,0,,1
633,633,"Chicago & Washtenaw","Chicago & Washtenaw, Westbound, Northeast Corner",41.89575737,-87.69416359,0,,1
634,634,"Chicago & California","Chicago & California, Westbound, Northeast Corner",41.895738,-87.69658078,0,,1
636,636,"Chicago & Grand","Chicago & Grand, Westbound, Northeast Corner",41.89571406,-87.69975158,0,,1
638,638,"Chicago & Sacramento","Chicago & Sacramento, Westbound, Northwest Corner",41.89567444,-87.7026472,0,,1
641,641,"Chicago & Spaulding","Chicago & Spaulding, Westbound, Northeast Corner",41.89561861,-87.7087673,0,,1
643,643,"Chicago & St. Louis","Chicago & St. Louis, Westbound, Northeast Corner",41.89556983,-87.71376902,0,,1
644,644,"Chicago & Central Park","Chicago & Central Park, Westbound, Northeast Corner",41.89554786,-87.71621107,0,,1
647,647,"Chicago & Springfield","Chicago & Springfield, Westbound, Northeast Corner",41.89549515,-87.72350651,0,,1
648,648,"Chicago & Pulaski","Chicago & Pulaski, Westbound, Northeast Corner",41.89545248,-87.72590695,0,,1
649,649,"Chicago & Karlov","Chicago & Karlov, Westbound, Northeast Corner",41.89538584,-87.72843492,0,,1
650,650,"Chicago & Keeler","Chicago & Keeler, Westbound, Northeast Corner",41.89536187,-87.73090956,0,,1
651,651,"Chicago & Kildare","Chicago & Kildare, Westbound, Northeast Corner",41.89532077,-87.73335446,0,,1
653,653,"Chicago & Kilbourn","Chicago & Kilbourn, Westbound, Northeast Corner",41.89522801,-87.73830492,0,,1
654,654,"Chicago & Kilpatrick","Chicago & Kilpatrick, Westbound, Northeast Corner",41.89513797,-87.74342006,0,,1
656,656,"Chicago & Lamon","Chicago & Lamon, Westbound, Northeast Corner",41.89505781,-87.74809623,0,,1
658,658,"Chicago & Leclaire","Chicago & Leclaire, Westbound, Northeast Corner",41.89504289,-87.75310502,0,,1
659,659,"Chicago & Laramie","Chicago & Laramie, Westbound, Northeast Corner",41.89503003,-87.75543937,0,,1
660,660,"Chicago & Lockwood","Chicago & Lockwood, Westbound, Northeast Corner",41.8950092,-87.75797067,0,,1
662,662,"Chicago & Pine","Chicago & Pine, Westbound, Northeast Corner",41.89490718,-87.76346686,0,,1
668,668,"Grand & Nordica Terminal","Grand & Nordica Terminal, Southbound, Bus Terminal",41.92385977,-87.8019919,0,,1
669,669,"Grand & Sayre","Grand & Sayre, Eastbound, Southwest Corner",41.92350485,-87.8008568,0,,1
670,670,"Grand & Newland","Grand & Newland, Eastbound, Southwest Corner",41.92351985,-87.7990238,0,,1
671,671,"Grand & Newcastle","Grand & Newcastle, Eastbound, Southwest Corner",41.92353385,-87.7971948,0,,1
672,672,"Grand & Oak Park","Grand & Oak Park, Eastbound, Southwest Corner",41.92352604,-87.79541961,0,,1
677,677,"Grand & Mobile","Grand & Mobile, Eastbound, Southwest Corner",41.92187085,-87.7830658,0,,1
680,680,"Grand & Austin","Grand & Austin, Eastbound, Southwest Corner",41.92049885,-87.7757188,0,,1
681,681,"Grand & Marmora","Grand & Marmora, Eastbound, Southwest Corner",41.92007137,-87.77326221,0,,1
683,683,"Grand & Major","Grand & Major, Eastbound, Southwest Corner",41.91917204,-87.76835591,0,,1
685,685,"5500 W Grand","5500 W Grand, Eastbound, Southside of the Street",41.91822189,-87.7632038,0,,1
686,686,"Grand & Long","Grand & Long, Eastbound, Southwest Corner",41.91781292,-87.76097389,0,,1
688,688,"Grand & Latrobe","Grand & Latrobe, Eastbound, Southwest Corner",41.91720257,-87.75765645,0,,1
689,689,"Grand & Laramie","Grand & Laramie, Eastbound, Southwest Corner",41.91690181,-87.75609452,0,,1
690,690,"Grand & Leclaire/Armitage","Grand & Leclaire/Armitage, Eastbound, Southwest Corner",41.9167917,-87.75352115,0,,1
691,691,"Grand & Lamon","Grand & Lamon, Eastbound, Southside of the Street",41.91523178,-87.74946202,0,,1
692,692,"Grand & Cicero","Grand & Cicero, Eastbound, Southwest Corner",41.91389809,-87.74616743,0,,1
693,693,"Grand & Kilpatrick","Grand & Kilpatrick, Eastbound, Southwest Corner",41.91293462,-87.74366304,0,,1
694,694,"Grand & Kenton","Grand & Kenton, Southeastbound, Northwest Corner",41.91167532,-87.74053898,0,,1
695,695,"Grand & Kilbourn","Grand & Kilbourn, Southeastbound, Northwest Corner",41.91097385,-87.73871678,0,,1
696,696,"Grand & Kostner","Grand & Kostner, Southeastbound, Northwest Corner",41.91004385,-87.73636678,0,,1
698,698,"Grand & Kildare","Grand & Kildare, Southeastbound, Northwest Corner",41.90911385,-87.73399978,0,,1
700,700,"Grand & Karlov","Grand & Karlov, Eastbound, Southwest Corner",41.90709085,-87.72900178,0,,1
702,702,"Grand & Springfield","Grand & Springfield, Eastbound, Southwest Corner",41.90515422,-87.72413076,0,,1
703,703,"Grand & Hamlin","Grand & Hamlin, Eastbound, Southwest Corner",41.90419607,-87.72160019,0,,1
704,704,"Grand & Lawndale","Grand & Lawndale, Eastbound, Southside of the Street",41.90343767,-87.71962375,0,,1
708,708,"Grand & Thomas","Grand & Thomas, Eastbound, Southwest Corner",41.90104665,-87.71369291,0,,1
714,714,"Grand & Sacramento Blvd.","Grand & Sacramento Blvd., Eastbound, Southeast Corner",41.89640674,-87.70205453,0,,1
717,717,"Grand & Washtenaw","Grand & Washtenaw, Eastbound, Southside of the Street",41.89329085,-87.69426077,0,,1
723,723,"Grand & Leavitt","Grand & Leavitt, Eastbound, Southwest Corner",41.89069986,-87.68179483,0,,1
724,724,"Grand & Hoyne","Grand & Hoyne, Eastbound, Southwest Corner",41.89070817,-87.67951386,0,,1
725,725,"Grand & Damen","Grand & Damen, Eastbound, Southwest Corner",41.89076764,-87.67702648,0,,1
726,726,"Grand & Wolcott","Grand & Wolcott, Eastbound, Southwest Corner",41.89081364,-87.67458148,0,,1
727,727,"Grand & Wood","Grand & Wood, Eastbound, Southwest Corner",41.89084864,-87.67214748,0,,1
728,728,"Grand & Paulina","Grand & Paulina, Eastbound, Southwest Corner",41.89088464,-87.66972048,0,,1
729,729,"Grand & Ashland","Grand & Ashland, Eastbound, Southwest Corner",41.89091134,-87.66731693,0,,1
730,730,"Grand & Armour","Grand & Armour, Eastbound, Southwest Corner",41.89092438,-87.66559917,0,,1
731,731,"Grand & Noble","Grand & Noble, Eastbound, Southwest Corner",41.89096638,-87.66234816,0,,1
735,735,"Grand & Aberdeen","Grand & Aberdeen, Eastbound, Southwest Corner",41.89103651,-87.65473629,0,,1
736,736,"Grand & Morgan","Grand & Morgan, Eastbound, Southwest Corner",41.89106665,-87.65242966,0,,1
737,737,"Grand & Peoria","Grand & Peoria, Eastbound, Southside of the Street",41.89109625,-87.6498526,0,,1
738,738,"Grand & Halsted/Milwaukee (Blue Line)","Grand & Halsted/Milwaukee (Blue Line), Eastbound, Southwest Corner",41.89112305,-87.6477829,0,,1
739,739,"Grand & Union","Grand & Union, Eastbound, Southwest Corner",41.89112225,-87.6458926,0,,1
741,741,"530 W Grand","530 W Grand, Eastbound, Southwest Corner",41.89117333,-87.64337122,0,,1
742,742,"Grand & Kingsbury","Grand & Kingsbury, Eastbound, Southwest Corner",41.89143524,-87.63997323,0,,1
744,744,"Grand & Franklin","Grand & Franklin, Eastbound, Southwest Corner",41.89151524,-87.63563923,0,,1
747,747,"Illinois & Clark","Illinois & Clark, Eastbound, Southwest Corner",41.89076586,-87.63128475,0,,1
751,751,"Illinois (Lower) & Michigan","Illinois (Lower) & Michigan, Eastbound, Southwest Corner",41.89088891,-87.62433173,0,,1
754,754,"Illinois & McClurg","Illinois & McClurg, Eastbound, Southwest Corner",41.89100986,-87.61786575,0,,1
755,755,"Illinois & Peshtigo","Illinois & Peshtigo, Eastbound, Southside of the Street",41.89104986,-87.61538175,0,,1
756,756,"Illinois & Lake Shore","Illinois & Lake Shore, Eastbound, Southside of the Street",41.89103297,-87.61315337,0,,1
758,758,"Navy Pier Terminal","Navy Pier Terminal, Northbound, Bus Terminal",41.89229697,-87.61017288,0,,1
759,759,"Grand & Streeter","Grand & Streeter, Westbound, Northwest Corner",41.89201886,-87.61213075,0,,1
760,760,"Grand & Peshtigo","Grand & Peshtigo, Westbound, Northside of the Street",41.89195686,-87.61539675,0,,1
761,761,"Grand & St. Clair","Grand & St. Clair, Westbound, Northeast Corner",41.89183186,-87.62253175,0,,1
764,764,"Grand & State (Red Line)","Grand & State (Red Line), Westbound, Northeast Corner",41.89174401,-87.62790657,0,,1
765,765,"Grand & Dearborn","Grand & Dearborn, Westbound, Northeast Corner",41.89172186,-87.62947275,0,,1
766,766,"Grand & Clark","Grand & Clark, Westbound, Northeast Corner",41.89170086,-87.63095075,0,,1
769,769,"Grand & Franklin","Grand & Franklin, Westbound, Northeast Corner",41.8916728,-87.63546687,0,,1
771,771,"Grand & Kingsbury","Grand & Kingsbury, Westbound, Northeast Corner",41.89158686,-87.63976275,0,,1
772,772,"530 W Grand","530 W Grand, Westbound, Northeast Corner",41.89133986,-87.64279475,0,,1
776,776,"Grand & Peoria","Grand & Peoria, Westbound, Northeast Corner",41.89124477,-87.64986028,0,,1
778,778,"Grand & Aberdeen","Grand & Aberdeen, Westbound, Northeast Corner",41.89119842,-87.65450541,0,,1
780,780,"Grand & Racine","Grand & Racine, Westbound, Northeast Corner",41.89116736,-87.65726321,0,,1
781,781,"Grand & Ogden","Grand & Ogden, Westbound, Northeast Corner",41.8911561,-87.65869272,0,,1
782,782,"Grand & Noble","Grand & Noble, Westbound, Northeast Corner",41.89108901,-87.66210566,0,,1
783,783,"Grand & Armour","Grand & Armour, Westbound, Northeast Corner",41.89108927,-87.66541172,0,,1
784,784,"Grand & Ashland","Grand & Ashland, Westbound, Northeast Corner",41.89107175,-87.66696443,0,,1
785,785,"Grand & Paulina","Grand & Paulina, Westbound, Northeast Corner",41.89102588,-87.66948357,0,,1
786,786,"Grand & Wood","Grand & Wood, Westbound, Northeast Corner",41.89099455,-87.67186777,0,,1
787,787,"Grand & Wolcott","Grand & Wolcott, Westbound, Northeast Corner",41.89095569,-87.67435929,0,,1
789,789,"Grand & Hoyne","Grand & Hoyne, Westbound, Northeast Corner",41.89087579,-87.6791861,0,,1
790,790,"Grand & Leavitt","Grand & Leavitt, Westbound, Northeast Corner",41.89078351,-87.68161628,0,,1
791,791,"Grand & Oakley","Grand & Oakley, Westbound, Northeast Corner",41.89078215,-87.68413527,0,,1
794,794,"Grand & Rockwell","Grand & Rockwell, Westbound, Northeast Corner",41.89239465,-87.69160604,0,,1
796,796,"Grand & Washtenaw","Grand & Washtenaw, Westbound, Northeast Corner",41.8934173,-87.69405971,0,,1
797,797,"Grand & California","Grand & California, Westbound, Northeast Corner",41.89424385,-87.69624477,0,,1
798,798,"Grand & Chicago","Grand & Chicago, Westbound, Northeast Corner",41.89539966,-87.69907581,0,,1
800,800,"Grand & Sacramento","Grand & Sacramento, Westbound, Northwest Corner",41.89687148,-87.70280633,0,,1
802,802,"Grand & Kedzie","Grand & Kedzie, Westbound, Northeast Corner",41.89821039,-87.70622389,0,,1
805,805,"Grand & Thomas","Grand & Thomas, Westbound, Northside of the Street",41.90112643,-87.71344401,0,,1
808,808,"Grand & Division","Grand & Division, Westbound, Northeast Corner",41.90262869,-87.71730531,0,,1
809,809,"Grand & Lawndale","Grand & Lawndale, Westbound, Northeast Corner",41.90350585,-87.71949678,0,,1
811,811,"Grand & Springfield","Grand & Springfield, Westbound, Northeast Corner",41.90517814,-87.72376262,0,,1
812,812,"Grand & Pulaski","Grand & Pulaski, Westbound, Northeast Corner",41.9061676,-87.72627138,0,,1
813,813,"Grand & Karlov","Grand & Karlov, Westbound, Northeast Corner",41.90720237,-87.72875964,0,,1
814,814,"Grand & Keeler","Grand & Keeler, Westbound, Northeast Corner",41.90815607,-87.73122157,0,,1
815,815,"Grand & Kildare","Grand & Kildare, Westbound, Northeast Corner",41.909109,-87.73364843,0,,1
817,817,"Grand & Kostner","Grand & Kostner, Northwestbound, Northeast Corner",41.91026285,-87.73658178,0,,1
818,818,"Grand & Kilbourn","Grand & Kilbourn, Northwestbound, Southeast Corner",41.91099985,-87.73844979,0,,1
819,819,"Grand & Kenton","Grand & Kenton, Northwestbound, Eastside of the Street",41.91170486,-87.74018546,0,,1
820,820,"4700 W Grand","4700 W Grand, Westbound, Northside of the Street",41.91293572,-87.74327101,0,,1
821,821,"Grand & Cicero","Grand & Cicero, Westbound, Northeast Corner",41.91398504,-87.74579179,0,,1
822,822,"Grand & Lamon","Grand & Lamon, Westbound, Northeast Corner",41.91532189,-87.74920043,0,,1
823,823,"Grand & Leclaire/Armitage","Grand & Leclaire/Armitage, Westbound, Northeast Corner",41.91669536,-87.7528236,0,,1
826,826,"Grand & Lockwood","Grand & Lockwood, Westbound, Northeast Corner",41.91744634,-87.75830298,0,,1
828,828,"5500 W Grand","5500 W Grand, Westbound, Northside of the Street",41.91832336,-87.76309023,0,,1
829,829,"Grand & Central","Grand & Central, Westbound, Northwest Corner",41.91895179,-87.76629909,0,,1
830,830,"Grand & Major","Grand & Major, Westbound, Northeast Corner",41.91925849,-87.7681679,0,,1
832,832,"Grand & Marmora","Grand & Marmora, Westbound, Northeast Corner",41.92016031,-87.7730639,0,,1
833,833,"Grand & Austin","Grand & Austin, Westbound, Northeast Corner",41.92062026,-87.77547941,0,,1
834,834,"Grand & Meade","Grand & Meade, Westbound, Northeast Corner",41.92106456,-87.77797814,0,,1
836,836,"Grand & Mobile","Grand & Mobile, Westbound, Northeast Corner",41.92196052,-87.78288124,0,,1
837,837,"Grand & Narragansett","Grand & Narragansett, Westbound, Northeast Corner",41.92266895,-87.78528291,0,,1
838,838,"Grand & Natchez","Grand & Natchez, Westbound, Northside of the Street",41.92328298,-87.78769863,0,,1
840,840,"Grand & Normandy","Grand & Normandy, Westbound, Northeast Corner",41.92370555,-87.79269284,0,,1
842,842,"Grand & New England","Grand & New England, Westbound, Northeast Corner",41.92367135,-87.79751132,0,,1
844,844,"Grand & Sayre","Grand & Sayre, Westbound, Northeast Corner",41.92360689,-87.80052154,0,,1
845,845,"Neva & North Ave","Neva & North Ave, Southbound, Northwest Corner",41.90903385,-87.8040158,0,,1
846,846,"North Ave & Forest","North Ave & Forest, Eastbound, Southwest Corner",41.90884724,-87.80129633,0,,1
847,847,"North Ave & Kenilworth","North Ave & Kenilworth, Eastbound, Southwest Corner",41.90890785,-87.7981088,0,,1
848,848,"North Ave & Oak Park","North Ave & Oak Park, Eastbound, Southwest Corner",41.90897814,-87.79517612,0,,1
849,849,"North Ave & Linden","North Ave & Linden, Eastbound, Southwest Corner",41.9090038,-87.7924564,0,,1
850,850,"North Ave & East","North Ave & East, Eastbound, Southwest Corner",41.90900385,-87.7901028,0,,1
851,851,"North Ave & Elmwood","North Ave & Elmwood, Eastbound, Southwest Corner",41.90900864,-87.78748255,0,,1
852,852,"North Ave & Narragansett","North Ave & Narragansett, Eastbound, Southside of the Street",41.90907058,-87.78511338,0,,1
854,854,"North Ave & Ridgeland","North Ave & Ridgeland, Eastbound, Southwest Corner",41.90910585,-87.78351072,0,,1
856,856,"North Ave & Lombard","North Ave & Lombard, Eastbound, Southwest Corner",41.90911768,-87.78091112,0,,1
857,857,"North Ave & Taylor","North Ave & Taylor, Eastbound, Southwest Corner",41.90920084,-87.77821243,0,,1
860,860,"North Ave & Menard","North Ave & Menard, Eastbound, Southwest Corner",41.90921511,-87.77086667,0,,1
861,861,"North Ave & Major","North Ave & Major, Eastbound, Southside of the Street",41.9092691,-87.76781071,0,,1
863,863,"North Ave & Linder","North Ave & Linder, Eastbound, Southeast Corner",41.90935385,-87.76318379,0,,1
865,865,"North Ave & Lockwood","North Ave & Lockwood, Eastbound, Southeast Corner",41.90942434,-87.75801881,0,,1
867,867,"North Ave & Leclaire","North Ave & Leclaire, Eastbound, Southside of the Street",41.90944254,-87.75276528,0,,1
868,868,"North Ave & Lavergne","North Ave & Lavergne, Eastbound, Southwest Corner",41.90946205,-87.75114843,0,,1
870,870,"North Ave & Cicero","North Ave & Cicero, Eastbound, Southwest Corner",41.90951871,-87.74637544,0,,1
871,871,"North Ave & Kilpatrick","North Ave & Kilpatrick, Eastbound, Southwest Corner",41.90955855,-87.74378138,0,,1
874,874,"North Ave & Kostner","North Ave & Kostner, Eastbound, Southwest Corner",41.90965385,-87.73650878,0,,1
875,875,"North Ave & Grand","North Ave & Grand, Eastbound, Southeast Corner",41.90968585,-87.73446878,0,,1
879,879,"North Ave & Springfield","North Ave & Springfield, Eastbound, Southwest Corner",41.90980706,-87.7242429,0,,1
880,880,"North Ave & Hamlin","North Ave & Hamlin, Eastbound, Southwest Corner",41.90988785,-87.72176878,0,,1
881,881,"North Ave & Lawndale","North Ave & Lawndale, Eastbound, Southwest Corner",41.90988822,-87.71936989,0,,1
882,882,"North Ave & Central Park","North Ave & Central Park, Eastbound, Southwest Corner",41.90993089,-87.71680303,0,,1
883,883,"North Ave & St. Louis","North Ave & St. Louis, Eastbound, Southwest Corner",41.90991631,-87.71452706,0,,1
885,885,"North Ave & Spaulding","North Ave & Spaulding, Eastbound, Southwest Corner",41.90998841,-87.70958137,0,,1
887,887,"North Ave & Albany","North Ave & Albany, Eastbound, Southwest Corner",41.91004211,-87.7047561,0,,1
888,888,"North Ave & Humboldt","North Ave & Humboldt, Eastbound, Southwest Corner",41.91007093,-87.70201119,0,,1
889,889,"North Ave & Francisco","North Ave & Francisco, Eastbound, Southside of the Street",41.9101033,-87.69893145,0,,1
890,890,"North Ave & California","North Ave & California, Eastbound, Southwest Corner",41.91012159,-87.69722928,0,,1
891,891,"North Ave & Washtenaw","North Ave & Washtenaw, Eastbound, Southwest Corner",41.91019102,-87.69464226,0,,1
893,893,"North Ave & Campbell","North Ave & Campbell, Eastbound, Southwest Corner",41.91023151,-87.68976133,0,,1
894,894,"North Ave & Western","North Ave & Western, Eastbound, Southwest Corner",41.91021288,-87.68743993,0,,1
895,895,"North Ave & Oakley","North Ave & Oakley, Eastbound, Southwest Corner",41.91029451,-87.68486233,0,,1
896,896,"North Ave & Leavitt","North Ave & Leavitt, Eastbound, Southwest Corner",41.9103345,-87.68242733,0,,1
897,897,"North Ave & Hoyne","North Ave & Hoyne, Eastbound, Southwest Corner",41.91036199,-87.68004555,0,,1
898,898,"North Ave & Milwaukee/Damen (Blue Line)","North Ave & Milwaukee/Damen (Blue Line), Eastbound, Southwest Corner",41.91042118,-87.67767664,0,,1
899,899,"North Ave & Wolcott","North Ave & Wolcott, Eastbound, Southwest Corner",41.91047152,-87.67513974,0,,1
900,900,"North Ave & Wood","North Ave & Wood, Eastbound, Southwest Corner",41.91050752,-87.67268674,0,,1
901,901,"North Ave & Paulina","North Ave & Paulina, Eastbound, Southwest Corner",41.91054352,-87.67025074,0,,1
902,902,"North Ave & Ashland","North Ave & Ashland, Eastbound, Southwest Corner",41.91056442,-87.6678835,0,,1
903,903,"North Ave & Bosworth","North Ave & Bosworth, Eastbound, Southeast Corner",41.91057765,-87.66629267,0,,1
910,910,"North Ave & Sheffield","North Ave & Sheffield, Eastbound, Southwest Corner",41.91077612,-87.65315265,0,,1
913,913,"North Ave & Clybourn/Halsted (Red Line)","North Ave & Clybourn/Halsted (Red Line), Eastbound, Southeast Corner",41.91084571,-87.64898165,0,,1
915,915,"North Ave & Orchard","North Ave & Orchard, Eastbound, Southside of the Street",41.9109109,-87.645936,0,,1
916,916,"North Ave & Larrabee","North Ave & Larrabee, Eastbound, Southwest Corner",41.91093,-87.64362808,0,,1
918,918,"North Ave & Sedgwick (Brown Line)","North Ave & Sedgwick (Brown Line), Eastbound, Southwest Corner",41.91100629,-87.63878333,0,,1
919,919,"North Ave & North Park","North Ave & North Park, Eastbound, Southwest Corner",41.91103594,-87.63679637,0,,1
920,920,"North Ave & Wells","North Ave & Wells, Eastbound, Southwest Corner",41.91105777,-87.63487966,0,,1
923,923,"North Ave & Clark Terminal","North Ave & Clark Terminal, Southwestbound, Bus Terminal",41.91128786,-87.63120075,0,,1
924,924,"North Ave & Clark","North Ave & Clark, Westbound, Northwest Corner",41.91124235,-87.6320275,0,,1
926,926,"North Ave & Wells","North Ave & Wells, Westbound, Northeast Corner",41.91119444,-87.63453312,0,,1
927,927,"North Ave & Sedgwick (Brown Line)","North Ave & Sedgwick (Brown Line), Westbound, Northeast Corner",41.91123097,-87.63842484,0,,1
928,928,"North Ave & Cleveland","North Ave & Cleveland, Westbound, Northeast Corner",41.91120497,-87.6407641,0,,1
929,929,"North Ave & Larrabee","North Ave & Larrabee, Westbound, Northwest Corner",41.91107624,-87.64383664,0,,1
933,933,"North Ave & Fremont","North Ave & Fremont, Westbound, Northside of the Street",41.91095093,-87.65101951,0,,1
934,934,"North Ave & Kingsbury","North Ave & Kingsbury, Westbound, Northeast Corner",41.91087431,-87.6540524,0,,1
939,939,"North Ave & Bosworth","North Ave & Bosworth, Westbound, Northeast Corner",41.91070508,-87.66624828,0,,1
941,941,"North Ave & Paulina","North Ave & Paulina, Westbound, Northeast Corner",41.91069153,-87.67009975,0,,1
942,942,"North Ave & Wood","North Ave & Wood, Westbound, Northeast Corner",41.91062375,-87.67246631,0,,1
943,943,"North Ave & Wolcott","North Ave & Wolcott, Westbound, Northeast Corner",41.91058852,-87.67509676,0,,1
945,945,"North Ave & Milwaukee/Damen (Blue Line)","North Ave & Milwaukee/Damen (Blue Line), Westbound, Northwest Corner",41.91055215,-87.67811477,0,,1
946,946,"North Ave & Hoyne","North Ave & Hoyne, Westbound, Northeast Corner",41.91054293,-87.67976602,0,,1
947,947,"North Ave & Leavitt","North Ave & Leavitt, Westbound, Northeast Corner",41.91050474,-87.68223346,0,,1
949,949,"North Ave & Western","North Ave & Western, Westbound, Northeast Corner",41.91039776,-87.68703494,0,,1
950,950,"North Ave & Campbell","North Ave & Campbell, Westbound, Northeast Corner",41.91037535,-87.68953613,0,,1
951,951,"North Ave & Rockwell","North Ave & Rockwell, Westbound, Northeast Corner",41.91038731,-87.69196898,0,,1
954,954,"North Ave & Francisco","North Ave & Francisco, Westbound, Northeast Corner",41.91031109,-87.69891452,0,,1
957,957,"North Ave & Albany","North Ave & Albany, Westbound, Northeast Corner",41.91028019,-87.7044776,0,,1
959,959,"North Ave & Spaulding","North Ave & Spaulding, Westbound, Northeast Corner",41.91018821,-87.70986121,0,,1
961,961,"North Ave & Drake","North Ave & Drake, Westbound, Northeast Corner",41.91012195,-87.71471738,0,,1
963,963,"North Ave & Lawndale","North Ave & Lawndale, Westbound, Northeast Corner",41.91010238,-87.71885991,0,,1
964,964,"North Ave & Hamlin","North Ave & Hamlin, Westbound, Northeast Corner",41.91010438,-87.72125891,0,,1
965,965,"North Ave & Springfield","North Ave & Springfield, Westbound, Northeast Corner",41.91002836,-87.72370125,0,,1
967,967,"North Ave & Karlov","North Ave & Karlov, Westbound, Northeast Corner",41.90995711,-87.72868003,0,,1
968,968,"North Ave & Keeler","North Ave & Keeler, Westbound, Northeast Corner",41.9099418,-87.73111576,0,,1
971,971,"North Ave & Kostner/Grand","North Ave & Kostner/Grand, Westbound, Northwest Corner",41.90985285,-87.73680778,0,,1
974,974,"North Ave & Kilpatrick","North Ave & Kilpatrick, Westbound, Northeast Corner",41.90977586,-87.74330852,0,,1
975,975,"North Ave & Cicero","North Ave & Cicero, Westbound, Northeast Corner",41.90975067,-87.745867,0,,1
976,976,"North Ave & Lamon","North Ave & Lamon, Westbound, Northeast Corner",41.9096982,-87.7491015,0,,1
977,977,"North Ave & Lavergne","North Ave & Lavergne, Westbound, Northside of the Street",41.90964103,-87.75104355,0,,1
978,978,"North Ave & Leclaire","North Ave & Leclaire, Westbound, Northeast Corner",41.90965449,-87.75252651,0,,1
981,981,"North Ave & Long","North Ave & Long, Westbound, Northeast Corner",41.90951704,-87.76040555,0,,1
984,984,"North Ave & Major","North Ave & Major, Westbound, Northeast Corner",41.9094635,-87.76781948,0,,1
985,985,"North Ave & Menard","North Ave & Menard, Westbound, Northeast Corner",41.9094339,-87.77010949,0,,1
986,986,"North Ave & Mayfield","North Ave & Mayfield, Westbound, Northwest Corner",41.90939523,-87.77314765,0,,1
987,987,"North Ave & Austin","North Ave & Austin, Westbound, Northeast Corner",41.90937271,-87.77509831,0,,1
988,988,"North Ave & Meade","North Ave & Meade, Westbound, Northeast Corner",41.90930361,-87.77747584,0,,1
989,989,"North Ave & Melvina","North Ave & Melvina, Westbound, Northeast Corner",41.90931877,-87.78000969,0,,1
990,990,"North Ave & Merrimac","North Ave & Merrimac, Westbound, Northeast Corner",41.9092872,-87.78156899,0,,1
992,992,"North Ave & Narragansett","North Ave & Narragansett, Westbound, Northeast Corner",41.90927977,-87.78440626,0,,1
993,993,"North Ave & Nagle","North Ave & Nagle, Westbound, Northeast Corner",41.90922984,-87.78655993,0,,1
996,996,"North Ave & Natoma","North Ave & Natoma, Westbound, Northwest Corner",41.90917066,-87.79181556,0,,1
997,997,"North Ave & Oak Park","North Ave & Oak Park, Westbound, Northeast Corner",41.90910866,-87.79450355,0,,1
998,998,"North Ave & New England","North Ave & New England, Westbound, Northeast Corner",41.90912418,-87.79711518,0,,1
999,999,"North Ave & Sayre","North Ave & Sayre, Westbound, Northeast Corner",41.90906605,-87.80013274,0,,1
1000,1000,"North Ave & Nordica","North Ave & Nordica, Westbound, Northeast Corner",41.90904623,-87.80200123,0,,1
1001,1001,"North Ave & Neva","North Ave & Neva, Westbound, Northeast Corner",41.90900991,-87.80372982,0,,1
1002,1002,"Harlem & North Ave","Harlem & North Ave, Northbound, Northeast Corner",41.90914582,-87.8056297,0,,1
1004,1004,"Harlem & Wabansia","Harlem & Wabansia, Northbound, Southeast Corner",41.91056973,-87.80571282,0,,1
1005,1005,"Wabansia & Neva","Wabansia & Neva, Eastbound, Southwest Corner",41.91068885,-87.8041108,0,,1
1011,1011,"Howard & Sheridan","Howard & Sheridan, Eastbound, Southwest Corner",42.0192029,-87.6661827,0,,1
1012,1012,"Sheridan & Birchwood","Sheridan & Birchwood, Southbound, Southwest Corner",42.01802888,-87.66580777,0,,1
1014,1014,"Sheridan & Jarvis","Sheridan & Jarvis, Southbound, Southwest Corner",42.01580855,-87.66511946,0,,1
1015,1015,"Sheridan & Sherwin","Sheridan & Sherwin, Southbound, Southwest Corner",42.01483191,-87.66469976,0,,1
1016,1016,"Sheridan & Chase","Sheridan & Chase, Southbound, Southwest Corner",42.01376488,-87.66415077,0,,1
1017,1017,"Sheridan & Touhy","Sheridan & Touhy, Southbound, Southwest Corner",42.01265687,-87.66353177,0,,1
1018,1018,"Sheridan & Estes","Sheridan & Estes, Southbound, Southwest Corner",42.01142187,-87.66295777,0,,1
1020,1020,"Sheridan & Lunt","Sheridan & Lunt, Southbound, Southwest Corner",42.00900987,-87.66215177,0,,1
1021,1021,"Sheridan & Morse","Sheridan & Morse, Southbound, Southwest Corner",42.00778487,-87.66175477,0,,1
1023,1023,"Sheridan & Pratt","Sheridan & Pratt, Southbound, Southwest Corner",42.00537187,-87.66100377,0,,1
1025,1025,"Sheridan & North Shore","Sheridan & North Shore, Southbound, Southwest Corner",42.00334945,-87.66092516,0,,1
1027,1027,"Sheridan & Loyola (Red Line)","Sheridan & Loyola (Red Line), Southbound, Westside of the Street",42.00143087,-87.66086577,0,,1
1028,1028,"Sheridan & Arthur","Sheridan & Arthur, Southbound, Southwest Corner",42.00025487,-87.66081377,0,,1
1029,1029,"Sheridan & Broadway/Devon","Sheridan & Broadway/Devon, Eastbound, Southeast Corner",41.99813835,-87.66023127,0,,1
1030,1030,"Sheridan & Winthrop","Sheridan & Winthrop, Eastbound, Southeast Corner",41.99812855,-87.65845202,0,,1
1031,1031,"Sheridan & Kenmore","Sheridan & Kenmore, Eastbound, Southside of the Street",41.99817586,-87.65688608,0,,1
1032,1032,"Sheridan & Rosemont","Sheridan & Rosemont, Southbound, Southwest Corner",41.99624387,-87.65565977,0,,1
1033,1033,"Sheridan & Granville","Sheridan & Granville, Southbound, Southwest Corner",41.99442687,-87.65560377,0,,1
1034,1034,"Sheridan & Glenlake","Sheridan & Glenlake, Southbound, Southwest Corner",41.99217487,-87.65553377,0,,1
1035,1035,"Sheridan & Thorndale","Sheridan & Thorndale, Southbound, Southwest Corner",41.98992387,-87.65546477,0,,1
1036,1036,"Sheridan & Ardmore","Sheridan & Ardmore, Southbound, Northwest Corner",41.98746657,-87.6553847,0,,1
1037,1037,"Sheridan & Hollywood","Sheridan & Hollywood, Southbound, Southwest Corner",41.98534687,-87.65532477,0,,1
1038,1038,"Sheridan & Bryn Mawr","Sheridan & Bryn Mawr, Southbound, Southwest Corner",41.98348887,-87.65525177,0,,1
1039,1039,"Sheridan & Catalpa","Sheridan & Catalpa, Southbound, Southwest Corner",41.98169187,-87.65522777,0,,1
1040,1040,"Sheridan & Balmoral","Sheridan & Balmoral, Southbound, Southwest Corner",41.97979032,-87.65516098,0,,1
1041,1041,"Sheridan & Berwyn","Sheridan & Berwyn, Southbound, Southwest Corner",41.97801981,-87.65513486,0,,1
1042,1042,"Sheridan & Foster","Sheridan & Foster, Southbound, Southwest Corner",41.97622087,-87.65507477,0,,1
1043,1043,"Sheridan & Winona","Sheridan & Winona, Southbound, Southwest Corner",41.97510287,-87.65505377,0,,1
1044,1044,"Sheridan & Argyle","Sheridan & Argyle, Southbound, Southwest Corner",41.97312787,-87.65500677,0,,1
1045,1045,"Sheridan & Ainslie","Sheridan & Ainslie, Southbound, Southwest Corner",41.97144721,-87.65496145,0,,1
1047,1047,"Sheridan & Lawrence","Sheridan & Lawrence, Southbound, Southwest Corner",41.96893552,-87.65489967,0,,1
1048,1048,"Sheridan & Leland","Sheridan & Leland, Southbound, Southwest Corner",41.96709487,-87.65488777,0,,1
1049,1049,"Sheridan & Wilson","Sheridan & Wilson, Southbound, Southwest Corner",41.96525387,-87.65486377,0,,1
1050,1050,"Sheridan & Sunnyside","Sheridan & Sunnyside, Southbound, Southwest Corner",41.96342887,-87.65484376,0,,1
1051,1051,"Sheridan & Montrose","Sheridan & Montrose, Southbound, Northwest Corner",41.96186587,-87.65480777,0,,1
1052,1052,"Sheridan & Broadway/Montrose","Sheridan & Broadway/Montrose, Southbound, Southwest Corner",41.96083568,-87.65479933,0,,1
1053,1053,"4242 N Sheridan","4242 N Sheridan, Southbound, Westside of the Street",41.95934887,-87.65472376,0,,1
1054,1054,"Sheridan & Buena","Sheridan & Buena, Southbound, Southwest Corner",41.95820987,-87.65472949,0,,1
1055,1055,"Sheridan & Cuyler","Sheridan & Cuyler, Southbound, Westside of the Street",41.95563487,-87.65469428,0,,1
1056,1056,"Sheridan & Irving Park","Sheridan & Irving Park, Southbound, Southwest Corner",41.95430598,-87.65461685,0,,1
1057,1057,"Sheridan & Sheffield","Sheridan & Sheffield, Eastbound, Southeast Corner",41.95263284,-87.65417389,0,,1
1058,1058,"Sheridan & Fremont","Sheridan & Fremont, Eastbound, Southeast Corner",41.95267033,-87.65174415,0,,1
1060,1060,"Sheridan & Pine Grove","Sheridan & Pine Grove, Eastbound, Southeast Corner",41.95281553,-87.64766469,0,,1
1061,1061,"Lake Shore & Grace","Lake Shore & Grace, Southbound, Southwest Corner",41.95206563,-87.64511955,0,,1
1062,1062,"Lake Shore & Waveland","Lake Shore & Waveland, Southbound, Southwest Corner",41.9502855,-87.64455019,0,,1
1063,1063,"Lake Shore & Addison","Lake Shore & Addison, Southbound, Southwest Corner",41.94859864,-87.64344051,0,,1
1064,1064,"Lake Shore & Brompton","Lake Shore & Brompton, Southbound, Southwest Corner",41.94756697,-87.64294996,0,,1
1065,1065,"Lake Shore & Cornelia","Lake Shore & Cornelia, Southbound, Southwest Corner",41.9466264,-87.64238392,0,,1
1066,1066,"Lake Shore & Stratford","Lake Shore & Stratford, Southbound, Southwest Corner",41.94598204,-87.64202067,0,,1
1067,1067,"Lake Shore & Hawthorne","Lake Shore & Hawthorne, Southbound, Southwest Corner",41.94466256,-87.64129768,0,,1
1068,1068,"Lake Shore & Roscoe","Lake Shore & Roscoe, Southbound, Southwest Corner",41.94322398,-87.64058447,0,,1
1070,1070,"Lake Shore & Melrose","Lake Shore & Melrose, Southbound, Northwest Corner",41.94129193,-87.6396757,0,,1
1072,1072,"Sheridan & Briar","Sheridan & Briar, Southbound, Southwest Corner",41.93857809,-87.63957448,0,,1
1073,1073,"Sheridan & Barry","Sheridan & Barry, Southbound, Southwest Corner",41.93757324,-87.63954075,0,,1
1074,1074,"Sheridan & Wellington","Sheridan & Wellington, Southbound, Southwest Corner",41.93643247,-87.6395066,0,,1
1075,1075,"Sheridan & Oakdale","Sheridan & Oakdale, Southbound, Southwest Corner",41.93539039,-87.63947109,0,,1
1076,1076,"Sheridan & Surf","Sheridan & Surf, Southbound, Southwest Corner",41.93419414,-87.63943174,0,,1
1077,1077,"Sheridan & Diversey","Sheridan & Diversey, Southbound, Northwest Corner",41.93302333,-87.63940339,0,,1
1078,1078,"Stockton & Wrightwood","Stockton & Wrightwood, Southbound, Westside of the Street",41.93131186,-87.63903655,0,,1
1079,1079,"Stockton & Roslyn","Stockton & Roslyn, Southbound, Westside of the Street",41.92830034,-87.63900749,0,,1
1080,1080,"Stockton & Arlington","Stockton & Arlington, Southbound, Westside of the Street",41.92649591,-87.63778048,0,,1
1081,1081,"Stockton & Fullerton","Stockton & Fullerton, Southbound, Southwest Corner",41.92548386,-87.63616676,0,,1
1082,1082,"Stockton & Webster","Stockton & Webster, Southbound, Northwest Corner",41.92212396,-87.63581172,0,,1
1083,1083,"Stockton & Dickens","Stockton & Dickens, Southbound, Northwest Corner",41.92031105,-87.6356968,0,,1
1084,1084,"Stockton & Armitage","Stockton & Armitage, Southbound, Westside of the Street",41.91880269,-87.63463893,0,,1
1085,1085,"Stockton & Lincoln","Stockton & Lincoln, Southbound, Westside of the Street",41.91574686,-87.63308975,0,,1
1086,1086,"Stockton & LaSalle","Stockton & LaSalle, Southbound, Northwest Corner",41.91362314,-87.63185634,0,,1
1087,1087,"Lake Shore & North Ave","Lake Shore & North Ave, Southbound, Westside of the Street",41.91050486,-87.62632275,0,,1
1088,1088,"Lake Shore & Burton","Lake Shore & Burton, Southbound, Southwest Corner",41.90934986,-87.62624575,0,,1
1089,1089,"Lake Shore & Schiller","Lake Shore & Schiller, Southbound, Southwest Corner",41.90757286,-87.62578775,0,,1
1090,1090,"Lake Shore & Banks","Lake Shore & Banks, Southbound, Southwest Corner",41.90660286,-87.62554775,0,,1
1091,1091,"Lake Shore & Goethe","Lake Shore & Goethe, Southbound, Southwest Corner",41.90566186,-87.62531575,0,,1
1092,1092,"Lake Shore & Scott","Lake Shore & Scott, Southbound, Southwest Corner",41.90470986,-87.62515375,0,,1
1093,1093,"Lake Shore & Division","Lake Shore & Division, Southbound, Southwest Corner",41.90382986,-87.62503675,0,,1
1094,1094,"Lake Shore & Elm","Lake Shore & Elm, Southbound, Southwest Corner",41.90298186,-87.62475775,0,,1
1095,1095,"Lake Shore & Cedar","Lake Shore & Cedar, Southbound, Southwest Corner",41.90223286,-87.62451875,0,,1
1096,1096,"Lake Shore & Oak","Lake Shore & Oak, Southbound, Northwest Corner",41.90095486,-87.62428975,0,,1
1097,1097,"Michigan & Delaware","Michigan & Delaware, Southbound, Northwest Corner",41.89935286,-87.62425175,0,,1
1098,1098,"Michigan & Pearson","Michigan & Pearson, Southbound, Northwest Corner",41.89773886,-87.62423975,0,,1
1100,1100,"Michigan & Erie","Michigan & Erie, Southbound, Northwest Corner",41.89429086,-87.62436975,0,,1
1101,1101,"Michigan & Ohio","Michigan & Ohio, Southbound, Northwest Corner",41.89269886,-87.62433375,0,,1
1102,1102,"Michigan & Illinois","Michigan & Illinois, Southbound, Westside of the Street",41.89104012,-87.62429915,0,,1
1103,1103,"Michigan & Hubbard (Wrigley Bldg.)","Michigan & Hubbard (Wrigley Bldg.), Southbound, Southwest Corner",41.88990186,-87.62424975,0,,1
1104,1104,"Michigan & South Water","Michigan & South Water, Southbound, Northwest Corner",41.88691229,-87.62468635,0,,1
1105,1105,"Michigan & Lake/Randolph","Michigan & Lake/Randolph, Southbound, Westside of the Street",41.88511186,-87.62462075,0,,1
1106,1106,"Michigan & Washington","Michigan & Washington, Southbound, Northwest Corner",41.88342185,-87.62459375,0,,1
1108,1108,"Adams & S. Wacker","Adams & S. Wacker, Westbound, Northeast Corner",41.87940785,-87.63654775,0,,1
1110,1110,"Michigan & Jackson","Michigan & Jackson, Southbound, Northwest Corner",41.87843685,-87.62445175,0,,1
1111,1111,"Ida B Wells Drive & Wabash","Ida B Wells Drive & Wabash, Westbound, Northeast Corner",41.87577585,-87.62579375,0,,1
1113,1113,"State & Van Buren","State & Van Buren, Northbound, Southeast Corner",41.87685552,-87.62754829,0,,1
1115,1115,"State & Adams","State & Adams, Northbound, Southeast Corner",41.87940926,-87.62761545,0,,1
1117,1117,"State & Madison","State & Madison, Northbound, Southeast Corner",41.88193285,-87.62768075,0,,1
1119,1119,"Michigan & Randolph","Michigan & Randolph, Northbound, Northeast Corner",41.88469579,-87.6243233,0,,1
1120,1120,"Michigan & South Water","Michigan & South Water, Northbound, Southeast Corner",41.8867076,-87.62438975,0,,1
1121,1121,"Michigan & E. Wacker","Michigan & E. Wacker, Northbound, Southeast Corner",41.88808386,-87.62443075,0,,1
1122,1122,"Michigan & Hubbard (Tribune Bldg.)","Michigan & Hubbard (Tribune Bldg.), Northbound, Southeast Corner",41.89021286,-87.62397475,0,,1
1123,1123,"Michigan & Grand","Michigan & Grand, Northbound, Eastside of the Street",41.89177686,-87.62403975,0,,1
1124,1124,"Michigan & Ontario","Michigan & Ontario, Northbound, Southeast Corner",41.89320186,-87.62409475,0,,1
1125,1125,"Michigan & Huron","Michigan & Huron, Northbound, Southeast Corner",41.89480586,-87.62410975,0,,1
1126,1126,"Michigan & Chicago","Michigan & Chicago, Northbound, Southeast Corner",41.89654286,-87.62413875,0,,1
1127,1127,"Michigan & Chestnut","Michigan & Chestnut, Northbound, Southeast Corner",41.89807686,-87.62396575,0,,1
1128,1128,"Michigan & Delaware/Walton","Michigan & Delaware/Walton, Northbound, Eastside of the Street",41.89944286,-87.62400975,0,,1
1129,1129,"Michigan & Oak","Michigan & Oak, Northbound, Southeast Corner",41.90065186,-87.62401375,0,,1
1130,1130,"Lake Shore & Cedar","Lake Shore & Cedar, Northbound, Eastside of the Street",41.90252786,-87.62444375,0,,1
1131,1131,"Lake Shore & Elm","Lake Shore & Elm, Northbound, Eastside of the Street",41.90330986,-87.62470175,0,,1
1132,1132,"Lake Shore & Division","Lake Shore & Division, Northbound, Eastside of the Street",41.90419886,-87.62497175,0,,1
1133,1133,"Lake Shore & Scott","Lake Shore & Scott, Northbound, Eastside of the Street",41.90495686,-87.62502975,0,,1
1134,1134,"Lake Shore & Goethe","Lake Shore & Goethe, Northbound, Eastside of the Street",41.90606986,-87.62527275,0,,1
1135,1135,"Lake Shore & Banks","Lake Shore & Banks, Northbound, Eastside of the Street",41.90705186,-87.62551275,0,,1
1136,1136,"Lake Shore & Schiller","Lake Shore & Schiller, Northbound, Eastside of the Street",41.90807186,-87.62576575,0,,1
1137,1137,"Lake Shore & Burton","Lake Shore & Burton, Northbound, Eastside of the Street",41.90968335,-87.62607222,0,,1
1138,1138,"Lake Shore & North Ave","Lake Shore & North Ave, Northbound, Eastside of the Street",41.91049435,-87.62612422,0,,1
1139,1139,"Stockton & LaSalle","Stockton & LaSalle, Northbound, Northeast Corner",41.91378286,-87.63170075,0,,1
1140,1140,"Stockton & Lincoln","Stockton & Lincoln, Northbound, Eastside of the Street",41.91605968,-87.63324075,0,,1
1141,1141,"Stockton & Armitage","Stockton & Armitage, Northbound, Eastside of the Street",41.91875793,-87.63440381,0,,1
1142,1142,"Stockton & Dickens","Stockton & Dickens, Northbound, Eastside of the Street",41.92024404,-87.63547497,0,,1
1143,1143,"Stockton & Webster","Stockton & Webster, Northbound, Eastside of the Street",41.92193127,-87.63563132,0,,1
1144,1144,"Stockton & Fullerton","Stockton & Fullerton, Northbound, Southeast Corner",41.92556976,-87.63587558,0,,1
1145,1145,"Stockton & Arlington","Stockton & Arlington, Northbound, Eastside of the Street",41.92663915,-87.63773393,0,,1
1146,1146,"Stockton & Roslyn","Stockton & Roslyn, Northbound, Eastside of the Street",41.92830715,-87.63877302,0,,1
1147,1147,"Stockton & Wrightwood","Stockton & Wrightwood, Northbound, Eastside of the Street",41.93132741,-87.63888937,0,,1
1148,1148,"Sheridan & Diversey","Sheridan & Diversey, Northbound, Northeast Corner",41.93311655,-87.63918003,0,,1
1149,1149,"Sheridan & Surf","Sheridan & Surf, Northbound, Northeast Corner",41.93450366,-87.63926562,0,,1
1150,1150,"Sheridan & Oakdale","Sheridan & Oakdale, Northbound, Northeast Corner",41.93576986,-87.63933276,0,,1
1151,1151,"Sheridan & Wellington","Sheridan & Wellington, Northbound, Northeast Corner",41.93676486,-87.63936476,0,,1
1152,1152,"Sheridan & Barry","Sheridan & Barry, Northbound, Northeast Corner",41.93788934,-87.63940466,0,,1
1153,1153,"Sheridan & Briar","Sheridan & Briar, Northbound, Southeast Corner",41.93870211,-87.63943264,0,,1
1154,1154,"Sheridan & Belmont","Sheridan & Belmont, Northbound, Southeast Corner",41.94003295,-87.6395069,0,,1
1155,1155,"Inner Lake Shore Drive & Belmont","Inner Lake Shore Drive & Belmont, Northbound, Northeast Corner",41.94037961,-87.6394848,0,,1
1157,1157,"Lake Shore & Roscoe","Lake Shore & Roscoe, Northbound, Eastside of the Street",41.94353748,-87.64048074,0,,1
1159,1159,"Lake Shore & Stratford","Lake Shore & Stratford, Northbound, Eastside of the Street",41.94618554,-87.64195728,0,,1
1160,1160,"Lake Shore & Cornelia","Lake Shore & Cornelia, Northbound, Eastside of the Street",41.94682456,-87.64231525,0,,1
1161,1161,"Lake Shore & Brompton","Lake Shore & Brompton, Northbound, Eastside of the Street",41.94780477,-87.64292463,0,,1
1162,1162,"Lake Shore & Addison","Lake Shore & Addison, Northbound, Eastside of the Street",41.94882951,-87.64347934,0,,1
1163,1163,"Lake Shore & Waveland","Lake Shore & Waveland, Northbound, Eastside of the Street",41.9504367,-87.64449708,0,,1
1164,1164,"Lake Shore & W. Sheridan (3900 N)","Lake Shore & W. Sheridan (3900 N), Northwestbound, Southeast Corner",41.95294662,-87.6452072,0,,1
1165,1165,"Sheridan & Pine Grove","Sheridan & Pine Grove, Westbound, Northwest Corner",41.95293381,-87.64804865,0,,1
1166,1166,"Sheridan & Broadway","Sheridan & Broadway, Westbound, Northwest Corner",41.95280178,-87.65006,0,,1
1167,1167,"Sheridan & Fremont","Sheridan & Fremont, Westbound, Northwest Corner",41.95277054,-87.65234587,0,,1
1168,1168,"Sheridan & Byron","Sheridan & Byron, Northbound, Northeast Corner",41.95287897,-87.65442944,0,,1
1169,1169,"Sheridan & Dakin","Sheridan & Dakin, Northbound, Northeast Corner",41.95381946,-87.65446282,0,,1
1170,1170,"Sheridan & Irving Park","Sheridan & Irving Park, Northbound, Northeast Corner",41.95465369,-87.65448322,0,,1
1171,1171,"Sheridan & Belle Plaine","Sheridan & Belle Plaine, Northbound, Northeast Corner",41.95668273,-87.65453845,0,,1
1173,1173,"4225 N Sheridan","4225 N Sheridan, Northbound, Eastside of the Street",41.95916653,-87.65459424,0,,1
1174,1174,"Sheridan & Broadway/Montrose","Sheridan & Broadway/Montrose, Northbound, Northeast Corner",41.96146363,-87.65467309,0,,1
1175,1175,"Sheridan & Montrose","Sheridan & Montrose, Northbound, Northeast Corner",41.96196087,-87.65465976,0,,1
1177,1177,"Sheridan & Wilson","Sheridan & Wilson, Northbound, Southeast Corner",41.96534887,-87.65471577,0,,1
1178,1178,"Sheridan & Leland","Sheridan & Leland, Northbound, Southeast Corner",41.96718987,-87.65473877,0,,1
1179,1179,"Sheridan & Lawrence","Sheridan & Lawrence, Northbound, Northeast Corner",41.96925775,-87.65475935,0,,1
1180,1180,"Sheridan & Gunnison","Sheridan & Gunnison, Northbound, Northeast Corner",41.97026714,-87.6547842,0,,1
1181,1181,"Sheridan & Ainslie","Sheridan & Ainslie, Northbound, Northeast Corner",41.97175287,-87.65481377,0,,1
1182,1182,"Sheridan & Argyle","Sheridan & Argyle, Northbound, Northeast Corner",41.97348387,-87.65485577,0,,1
1183,1183,"Sheridan & Winona","Sheridan & Winona, Northbound, Northeast Corner",41.97545887,-87.65490277,0,,1
1184,1184,"Sheridan & Foster","Sheridan & Foster, Northbound, Northeast Corner",41.97662787,-87.65490177,0,,1
1185,1185,"Sheridan & Berwyn","Sheridan & Berwyn, Northbound, Eastside of the Street",41.97820992,-87.65493766,0,,1
1186,1186,"Sheridan & Balmoral","Sheridan & Balmoral, Northbound, Eastside of the Street",41.98011087,-87.65502477,0,,1
1187,1187,"Sheridan & Catalpa","Sheridan & Catalpa, Northbound, Eastside of the Street",41.98180087,-87.65507977,0,,1
1188,1188,"Sheridan & Bryn Mawr","Sheridan & Bryn Mawr, Northbound, Southeast Corner",41.98360187,-87.65511877,0,,1
1189,1189,"Sheridan & Hollywood","Sheridan & Hollywood, Northbound, Southeast Corner",41.98544187,-87.65517677,0,,1
1190,1190,"Sheridan & Ardmore","Sheridan & Ardmore, Northbound, Northeast Corner",41.98752787,-87.65522877,0,,1
1191,1191,"Sheridan & Thorndale","Sheridan & Thorndale, Northbound, Northeast Corner",41.99027987,-87.65531377,0,,1
1192,1192,"Sheridan & Glenlake","Sheridan & Glenlake, Northbound, Northeast Corner",41.99253087,-87.65538377,0,,1
1198,1198,"Sheridan & Granville","Sheridan & Granville, Northbound, Northeast Corner",41.99478287,-87.65545277,0,,1
1199,1199,"Sheridan & Rosemont","Sheridan & Rosemont, Northbound, Northeast Corner",41.99659987,-87.65550877,0,,1
1200,1200,"Sheridan & Kenmore","Sheridan & Kenmore, Westbound, Northeast Corner",41.99833948,-87.65694133,0,,1
1201,1201,"Sheridan & Winthrop","Sheridan & Winthrop, Westbound, Northeast Corner",41.99828173,-87.65835463,0,,1
1203,1203,"Sheridan & Arthur (Red Line)","Sheridan & Arthur (Red Line), Northbound, Eastside of the Street",42.00038996,-87.66060636,0,,1
1204,1204,"Sheridan & Loyola","Sheridan & Loyola, Northbound, Northeast Corner",42.00170987,-87.66066377,0,,1
1206,1206,"Sheridan & North Shore","Sheridan & North Shore, Northbound, Northeast Corner",42.00387887,-87.66072259,0,,1
1208,1208,"Sheridan & Pratt","Sheridan & Pratt, Northbound, Northeast Corner",42.00572787,-87.66085377,0,,1
1210,1210,"Sheridan & Morse","Sheridan & Morse, Northbound, Northeast Corner",42.00814087,-87.66160377,0,,1
1211,1211,"Sheridan & Lunt","Sheridan & Lunt, Northbound, Northeast Corner",42.00936587,-87.66200077,0,,1
1213,1213,"Sheridan & Estes","Sheridan & Estes, Northbound, Eastside of the Street",42.01166787,-87.66280877,0,,1
1214,1214,"Sheridan & Touhy","Sheridan & Touhy, Northbound, Northeast Corner",42.01301288,-87.66338077,0,,1
1215,1215,"Sheridan & Chase","Sheridan & Chase, Northbound, Northeast Corner",42.01412088,-87.66399977,0,,1
1216,1216,"Sheridan & Sherwin","Sheridan & Sherwin, Northbound, Northeast Corner",42.01521742,-87.66468025,0,,1
1217,1217,"Sheridan & Jarvis","Sheridan & Jarvis, Northbound, Northeast Corner",42.01627588,-87.66502377,0,,1
1220,1220,"Howard & Sheridan","Howard & Sheridan, Westbound, Northwest Corner",42.01931326,-87.66630727,0,,1
1224,1224,"Fullerton & Halsted","Fullerton & Halsted, Westbound, Northwest Corner",41.92552247,-87.64943333,0,,1
1225,1225,"Fullerton Red/Brown/Purple Line Station","Fullerton Red/Brown/Purple Line Station, Westbound, Northside of the Street",41.92546369,-87.65277662,0,,1
1227,1227,"Fullerton & Racine","Fullerton & Racine, Westbound, Northeast Corner",41.92537986,-87.65834376,0,,1
1228,1228,"Fullerton & Surrey Court","Fullerton & Surrey Court, Westbound, Northeast Corner",41.92533386,-87.66027776,0,,1
1233,1233,"Fullerton & Riverfront Mall (1800 W)","Fullerton & Riverfront Mall (1800 W), Westbound, Northwest Corner",41.92519432,-87.672669,0,,1
1236,1236,"Fullerton & Damen","Fullerton & Damen, Westbound, Northwest Corner",41.92511687,-87.67817679,0,,1
1238,1238,"Fullerton & Oakley","Fullerton & Oakley, Westbound, Northeast Corner",41.92498164,-87.68512482,0,,1
1240,1240,"Fullerton & Campbell","Fullerton & Campbell, Westbound, Northeast Corner",41.92496689,-87.68999633,0,,1
1241,1241,"Fullerton & Rockwell","Fullerton & Rockwell, Westbound, Northeast Corner",41.9249692,-87.69237973,0,,1
1242,1242,"Fullerton & Washtenaw","Fullerton & Washtenaw, Westbound, Northeast Corner",41.92490167,-87.69485963,0,,1
1243,1243,"Fullerton & California","Fullerton & California, Westbound, Northeast Corner",41.92492559,-87.69726357,0,,1
1246,1246,"Fullerton & Albany","Fullerton & Albany, Westbound, Northeast Corner",41.92482724,-87.70440965,0,,1
1248,1248,"Fullerton & Kedzie","Fullerton & Kedzie, Westbound, Northwest Corner",41.92486429,-87.70764902,0,,1
1249,1249,"Fullerton & Spaulding","Fullerton & Spaulding, Westbound, Northeast Corner",41.92477659,-87.71055245,0,,1
1250,1250,"Fullerton & Kimball","Fullerton & Kimball, Westbound, Northeast Corner",41.92479423,-87.71187335,0,,1
1251,1251,"Fullerton & St. Louis","Fullerton & St. Louis, Westbound, Northeast Corner",41.924709,-87.7142355,0,,1
1252,1252,"Fullerton & Central Park","Fullerton & Central Park, Westbound, Northeast Corner",41.92469324,-87.71686966,0,,1
1253,1253,"Fullerton & Lawndale","Fullerton & Lawndale, Westbound, Northeast Corner",41.92469323,-87.71936867,0,,1
1255,1255,"Fullerton & Hamlin","Fullerton & Hamlin, Westbound, Northeast Corner",41.92465896,-87.72190855,0,,1
1256,1256,"Fullerton & Springfield","Fullerton & Springfield, Westbound, Northeast Corner",41.92457902,-87.7242038,0,,1
1257,1257,"Fullerton & Pulaski","Fullerton & Pulaski, Westbound, Northeast Corner",41.92460499,-87.72659582,0,,1
1258,1258,"Fullerton & Karlov","Fullerton & Karlov, Westbound, Northside of the Street",41.92452018,-87.72911032,0,,1
1259,1259,"Fullerton & Keeler","Fullerton & Keeler, Westbound, Northeast Corner",41.9245344,-87.73154575,0,,1
1260,1260,"Fullerton & Tripp","Fullerton & Tripp, Westbound, Northeast Corner",41.92453539,-87.73281376,0,,1
1261,1261,"Fullerton & Kildare","Fullerton & Kildare, Westbound, Northeast Corner",41.92447166,-87.73395814,0,,1
1262,1262,"Fullerton & Kostner","Fullerton & Kostner, Westbound, Northeast Corner",41.92446448,-87.73648398,0,,1
1263,1263,"Fullerton & Kilbourn","Fullerton & Kilbourn, Westbound, Northeast Corner",41.92442698,-87.73891985,0,,1
1264,1264,"Fullerton & Kenton","Fullerton & Kenton, Westbound, Northeast Corner",41.92438876,-87.74128923,0,,1
1265,1265,"Fullerton & Kilpatrick","Fullerton & Kilpatrick, Westbound, Northeast Corner",41.9243588,-87.7437078,0,,1
1267,1267,"Fullerton & Lamon","Fullerton & Lamon, Westbound, Northeast Corner",41.92426881,-87.7486529,0,,1
1269,1269,"Fullerton & Leclaire","Fullerton & Leclaire, Westbound, Northeast Corner",41.92422597,-87.75351703,0,,1
1270,1270,"Fullerton & Laramie","Fullerton & Laramie, Westbound, Northeast Corner",41.92419465,-87.75594439,0,,1
1271,1271,"Fullerton & Lockwood","Fullerton & Lockwood, Westbound, Northeast Corner",41.92415264,-87.7585794,0,,1
1272,1272,"Fullerton & Long","Fullerton & Long, Westbound, Northeast Corner",41.92413821,-87.76098806,0,,1
1273,1273,"Fullerton & Linder","Fullerton & Linder, Westbound, Northeast Corner",41.92407495,-87.76341886,0,,1
1275,1275,"Fullerton & Major","Fullerton & Major, Westbound, Northeast Corner",41.92407694,-87.76822188,0,,1
1278,1278,"Fullerton & Austin","Fullerton & Austin, Westbound, Northeast Corner",41.92394548,-87.77559441,0,,1
1279,1279,"Fullerton & Meade","Fullerton & Meade, Westbound, Northeast Corner",41.92387138,-87.77804838,0,,1
1282,1282,"Fullerton & Narragansett","Fullerton & Narragansett, Westbound, Northeast Corner",41.92379671,-87.7852903,0,,1
1283,1283,"6450 W Fullerton","6450 W Fullerton, Westbound, Northside of the Street",41.9237826,-87.7870086,0,,1
1286,1286,"6450 W Fullerton","6450 W Fullerton, Eastbound, Southside of the Street",41.92361783,-87.78686275,0,,1
1287,1287,"2500 N Narragansett","2500 N Narragansett, Northbound, Eastside of the Street",41.92556085,-87.7854318,0,,1
1289,1289,"2500 N Narragansett","2500 N Narragansett, Southbound, Westside of the Street",41.92586586,-87.78560573,0,,1
1291,1291,"Fullerton & Mobile","Fullerton & Mobile, Eastbound, Southwest Corner",41.92365103,-87.78309104,0,,1
1295,1295,"Fullerton & Marmora","Fullerton & Marmora, Eastbound, Southwest Corner",41.9237652,-87.77335666,0,,1
1296,1296,"Fullerton & Menard","Fullerton & Menard, Eastbound, Southwest Corner",41.92382935,-87.77096266,0,,1
1299,1299,"Fullerton & Linder","Fullerton & Linder, Eastbound, Southside of the Street",41.92395485,-87.76362679,0,,1
1301,1301,"Fullerton & Lockwood","Fullerton & Lockwood, Eastbound, Southwest Corner",41.92401685,-87.75871179,0,,1
1302,1302,"Fullerton & Laramie","Fullerton & Laramie, Eastbound, Southwest Corner",41.92404985,-87.75623979,0,,1
1303,1303,"Fullerton & Leclaire","Fullerton & Leclaire, Eastbound, Southwest Corner",41.92405979,-87.75380526,0,,1
1304,1304,"Fullerton & Lavergne","Fullerton & Lavergne, Eastbound, Southwest Corner",41.92409368,-87.75133177,0,,1
1305,1305,"Fullerton & Lamon","Fullerton & Lamon, Eastbound, Southwest Corner",41.92408487,-87.74886441,0,,1
1306,1306,"Fullerton & Cicero","Fullerton & Cicero, Eastbound, Southeast Corner",41.92412034,-87.74650105,0,,1
1307,1307,"Fullerton & Kilpatrick","Fullerton & Kilpatrick, Eastbound, Southwest Corner",41.92415087,-87.74397941,0,,1
1308,1308,"Fullerton & Kenton","Fullerton & Kenton, Eastbound, Southside of the Street",41.92425086,-87.74161779,0,,1
1309,1309,"Fullerton & Kilbourn","Fullerton & Kilbourn, Eastbound, Southwest Corner",41.92426002,-87.73909321,0,,1
1310,1310,"Fullerton & Kostner","Fullerton & Kostner, Eastbound, Southwest Corner",41.92431486,-87.73668279,0,,1
1311,1311,"Fullerton & Kildare","Fullerton & Kildare, Eastbound, Southwest Corner",41.92434486,-87.73423079,0,,1
1312,1312,"Fullerton & Tripp","Fullerton & Tripp, Eastbound, Southwest Corner",41.92435986,-87.73300779,0,,1
1313,1313,"Fullerton & Keeler","Fullerton & Keeler, Eastbound, Southwest Corner",41.92437486,-87.73178178,0,,1
1314,1314,"Fullerton & Karlov","Fullerton & Karlov, Eastbound, Southwest Corner",41.92440086,-87.72934278,0,,1
1315,1315,"Fullerton & Pulaski","Fullerton & Pulaski, Eastbound, Southwest Corner",41.92436138,-87.72696266,0,,1
1316,1316,"Fullerton & Springfield","Fullerton & Springfield, Eastbound, Southwest Corner",41.92439488,-87.72441268,0,,1
1317,1317,"Fullerton & Hamlin","Fullerton & Hamlin, Eastbound, Southwest Corner",41.92442288,-87.72198168,0,,1
1319,1319,"Fullerton & Lawndale","Fullerton & Lawndale, Eastbound, Southwest Corner",41.92445188,-87.71953568,0,,1
1320,1320,"Fullerton & Central Park","Fullerton & Central Park, Eastbound, Southwest Corner",41.92448088,-87.71708068,0,,1
1321,1321,"Fullerton & St. Louis","Fullerton & St. Louis, Eastbound, Southwest Corner",41.92450288,-87.71465969,0,,1
1322,1322,"Fullerton & Kimball","Fullerton & Kimball, Eastbound, Southwest Corner",41.92455059,-87.71227429,0,,1
1323,1323,"Fullerton & Spaulding","Fullerton & Spaulding, Eastbound, Southwest Corner",41.92462986,-87.71088178,0,,1
1324,1324,"Fullerton & Kedzie","Fullerton & Kedzie, Eastbound, Southwest Corner",41.92462568,-87.70765251,0,,1
1326,1326,"Fullerton & Albany","Fullerton & Albany, Eastbound, Southwest Corner",41.92468786,-87.70475178,0,,1
1327,1327,"Fullerton & Sacramento","Fullerton & Sacramento, Eastbound, Southwest Corner",41.92470986,-87.70242778,0,,1
1329,1329,"Fullerton & California","Fullerton & California, Eastbound, Southwest Corner",41.92470593,-87.69756791,0,,1
1330,1330,"Fullerton & Washtenaw","Fullerton & Washtenaw, Eastbound, Southeast Corner",41.92474133,-87.69544241,0,,1
1332,1332,"Fullerton & Campbell","Fullerton & Campbell, Eastbound, Southside of the Street",41.92480191,-87.69016349,0,,1
1333,1333,"Fullerton & Western","Fullerton & Western, Eastbound, Southwest Corner",41.9248138,-87.68782397,0,,1
1334,1334,"Fullerton & Oakley","Fullerton & Oakley, Eastbound, Southwest Corner",41.9248402,-87.68526325,0,,1
1339,1339,"Fullerton & Wood","Fullerton & Wood, Eastbound, Southwest Corner",41.92503479,-87.67279628,0,,1
1340,1340,"Fullerton & Clybourn","Fullerton & Clybourn, Eastbound, Southwest Corner",41.92506032,-87.66939611,0,,1
1345,1345,"Fullerton & Racine","Fullerton & Racine, Eastbound, Southwest Corner",41.92526813,-87.65861712,0,,1
1346,1346,"Fullerton & Seminary","Fullerton & Seminary, Eastbound, Southside of the Street",41.92530713,-87.65608212,0,,1
1347,1347,"Fullerton & Sheffield","Fullerton & Sheffield, Eastbound, Southeast Corner",41.9253259,-87.65335938,0,,1
1348,1348,"Fullerton & Halsted/Lincoln","Fullerton & Halsted/Lincoln, Eastbound, Southwest Corner",41.92538902,-87.64897269,0,,1
1349,1349,"Halsted & Belden","Halsted & Belden, Southbound, Northwest Corner",41.92370886,-87.64878276,0,,1
1350,1350,"Webster & Halsted","Webster & Halsted, Eastbound, Southeast Corner",41.9217712,-87.64843715,0,,1
1351,1351,"Webster & Orchard","Webster & Orchard, Eastbound, Southside of the Street",41.92180958,-87.6462096,0,,1
1352,1352,"Lincoln & Webster","Lincoln & Webster, Northwestbound, Northeast Corner",41.92221756,-87.64411368,0,,1
1353,1353,"Lincoln & Belden/Orchard","Lincoln & Belden/Orchard, Northwestbound, Southeast Corner",41.92359694,-87.64591594,0,,1
1354,1354,"Devon & Kedzie Terminal","Devon & Kedzie Terminal, Eastbound, Bus Terminal",41.9979343,-87.7095452,0,,1
1355,1355,"McCormick & Devon","McCormick & Devon, Southbound, Southwest Corner",41.99707714,-87.7118178,0,,1
1356,1356,"Lincoln & McCormick/Kimball","Lincoln & McCormick/Kimball, Southeastbound, Southwest Corner",41.99404496,-87.71352034,0,,1
1357,1357,"Lincoln & Jersey","Lincoln & Jersey, Southeastbound, Southwest Corner",41.99252235,-87.71104552,0,,1
1358,1358,"Lincoln & Kedzie","Lincoln & Kedzie, Southeastbound, Southside of the Street",41.99116786,-87.70884339,0,,1
1359,1359,"Lincoln & Peterson","Lincoln & Peterson, Southeastbound, Southwest Corner",41.99014329,-87.70716738,0,,1
1360,1360,"Lincoln & Whipple","Lincoln & Whipple, Southeastbound, Northwest Corner",41.98901587,-87.70526478,0,,1
1361,1361,"Lincoln & Sacramento","Lincoln & Sacramento, Southeastbound, Northwest Corner",41.98831787,-87.70406678,0,,1
1362,1362,"Lincoln & Francisco","Lincoln & Francisco, Southeastbound, Northwest Corner",41.98678587,-87.70149478,0,,1
1363,1363,"Lincoln & California","Lincoln & California, Southeastbound, Northwest Corner",41.98549602,-87.69935776,0,,1
1364,1364,"Lincoln & Washtenaw","Lincoln & Washtenaw, Southeastbound, Northwest Corner",41.98400757,-87.69683086,0,,1
1365,1365,"Lincoln & Bryn Mawr","Lincoln & Bryn Mawr, Southeastbound, Northwest Corner",41.9832555,-87.69553207,0,,1
1367,1367,"Lincoln & Balmoral","Lincoln & Balmoral, Southeastbound, Northwest Corner",41.97954887,-87.69274478,0,,1
